Addresses,Latitude,Longitude,"Accuracy Score","Accuracy Type",Number,Street,"Unit Type","Unit Number",City,State,County,Zip,Country,Source
"100 W WATER ST, Charlottesville, VA",38.030191,-78.481861,1,range_interpolation,100,"Water St W",,,Charlottesville,VA,"Albemarle County",22902,US,"TIGER/Line® dataset from the US Census Bureau"
"500 PARK ST, Charlottesville, VA",38.03394,-78.475337,1,rooftop,500,"Park St",,,Charlottesville,VA,"Albemarle County",22902,US,"City of Charlottesville"
"600 E MARKET ST, Charlottesville, VA",38.030267,-78.477549,1,range_interpolation,600,"Market St E",,,Charlottesville,VA,"Albemarle County",22902,US,"TIGER/Line® dataset from the US Census Bureau"
"100 W WATER ST, Charlottesville, VA",38.030191,-78.481861,1,range_interpolation,100,"Water St W",,,Charlottesville,VA,"Albemarle County",22902,US,"TIGER/Line® dataset from the US Census Bureau"
"100 W WATER ST, Charlottesville, VA",38.030191,-78.481861,1,range_interpolation,100,"Water St W",,,Charlottesville,VA,"Albemarle County",22902,US,"TIGER/Line® dataset from the US Census Bureau"
"1400 HAMPTON ST, Charlottesville, VA",38.019047,-78.469152,1,range_interpolation,1400,"Hampton St",,,Charlottesville,VA,"Albemarle County",22902,US,"TIGER/Line® dataset from the US Census Bureau"
"1400 HAZEL ST, Charlottesville, VA",38.033533,-78.4651,1,rooftop,1400,"Hazel St",,,Charlottesville,VA,"Albemarle County",22902,US,"City of Charlottesville"
"600 E MARKET ST, Charlottesville, VA",38.030267,-78.477549,1,range_interpolation,600,"Market St E",,,Charlottesville,VA,"Albemarle County",22902,US,"TIGER/Line® dataset from the US Census Bureau"
"1700 JEFFERSON PARK AVE, Charlottesville, VA",38.030234,-78.508221,1,rooftop,1700,"Jefferson Park Ave",,,Charlottesville,VA,"Albemarle County",22903,US,"City of Charlottesville"
"1200 LEE ST, Charlottesville, VA",38.031726,-78.498276,1,range_interpolation,1200,"Lee St",,,Charlottesville,VA,"Albemarle County",22903,US,"TIGER/Line® dataset from the US Census Bureau"
"300 10 1/2 ST NW, Charlottesville, VA",38.035412,-78.494329,1,range_interpolation,300,"10 1/2 St NW",,,Charlottesville,VA,"Albemarle County",22903,US,"TIGER/Line® dataset from the US Census Bureau"
"100 EMMET ST S, Charlottesville, VA",38.039962,-78.506659,1,range_interpolation,100,"Emmet St S",,,Charlottesville,VA,"Albemarle County",22903,US,"TIGER/Line® dataset from the US Census Bureau"
"500 ROCKLAND AVE, Charlottesville, VA",38.019593,-78.486204,1,range_interpolation,500,"Rockland Ave",,,Charlottesville,VA,"Albemarle County",22902,US,"TIGER/Line® dataset from the US Census Bureau"
"1000 SAMUEL MILLER LOOP, Charlottesville, VA",38.005943,-78.701247,1,rooftop,1000,"Samuel Miller Loop",,,Charlottesville,VA,"Albemarle County",22903,US,Albemarle
"100 12 1/2 ST NW, Charlottesville, VA",38.033051,-78.497541,1,range_interpolation,100,"12 1/2 St NW",,,Charlottesville,VA,"Albemarle County",22903,US,"TIGER/Line® dataset from the US Census Bureau"
"600 E MAIN ST, Charlottesville, VA",38.030966,-78.488496,0.8,rooftop,600,"W Main St",,,Charlottesville,VA,"Albemarle County",22903,US,"Virginia Geographic Information Network (VGIN)"
"1100 MONTICELLO RD, Charlottesville, VA",38.022839,-78.473248,1,range_interpolation,1100,"Monticello Rd",,,Charlottesville,VA,"Albemarle County",22902,US,"TIGER/Line® dataset from the US Census Bureau"
"400 MCINTIRE RD, Charlottesville, VA",38.035419,-78.481793,1,range_interpolation,400,"McIntire Rd",,,Charlottesville,VA,"Albemarle County",22902,US,"TIGER/Line® dataset from the US Census Bureau"
"600 E MARKET ST, Charlottesville, VA",38.030267,-78.477549,1,range_interpolation,600,"Market St E",,,Charlottesville,VA,"Albemarle County",22902,US,"TIGER/Line® dataset from the US Census Bureau"
"800 PRESTON AVE, Charlottesville, VA",38.036342,-78.488528,1,rooftop,800,"Preston Ave",,,Charlottesville,VA,"Albemarle County",22903,US,"City of Charlottesville"
"1100 5TH ST SW, Charlottesville, VA",38.014495,-78.50005,1,range_interpolation,1100,"5th St SW",,,Charlottesville,VA,"Albemarle County",22902,US,"TIGER/Line® dataset from the US Census Bureau"
"1400 UNIVERSITY AVE, Charlottesville, VA",38.033951,-78.49996,1,rooftop,1400,"University Ave",,,Charlottesville,VA,"Albemarle County",22903,US,Albemarle
"1400 E HIGH ST, Charlottesville, VA",38.03229,-78.463473,1,range_interpolation,1400,"High St E",,,Charlottesville,VA,"Albemarle County",22902,US,"TIGER/Line® dataset from the US Census Bureau"
"1500 DAIRY RD, Charlottesville, VA",38.052849,-78.48642,1,range_interpolation,1500,"Dairy Rd",,,Charlottesville,VA,"Albemarle County",22903,US,"TIGER/Line® dataset from the US Census Bureau"
"700 MADISON AVE, Charlottesville, VA",38.041161,-78.495152,1,range_interpolation,700,"Madison Ave",,,Charlottesville,VA,"Albemarle County",22903,US,"TIGER/Line® dataset from the US Census Bureau"
"700 NASSAU ST, Charlottesville, VA",38.01939,-78.466963,1,range_interpolation,700,"Nassau St",,,Charlottesville,VA,"Albemarle County",22902,US,"TIGER/Line® dataset from the US Census Bureau"
"700 MADISON, Charlottesville, VA",38.041161,-78.495152,0.6,range_interpolation,700,"Madison Ave",,,Charlottesville,VA,"Albemarle County",22903,US,"TIGER/Line® dataset from the US Census Bureau"
"500 PARK ST, Charlottesville, VA",38.03394,-78.475337,1,rooftop,500,"Park St",,,Charlottesville,VA,"Albemarle County",22902,US,"City of Charlottesville"
"900 PRESTON AVE, Charlottesville, VA",38.037013,-78.489636,1,rooftop,900,"Preston Ave",,,Charlottesville,VA,"Albemarle County",22902,US,"City of Charlottesville"
"1800 MONTICELLO AVE, Charlottesville, VA",38.012794,-78.476882,1,rooftop,1800,"Monticello Ave",,,Charlottesville,VA,"Albemarle County",22902,US,Albemarle
"900 E JEFFERSON ST, Charlottesville, VA",38.03031,-78.474402,1,rooftop,900,"E Jefferson St",,,Charlottesville,VA,"Albemarle County",22901,US,"City of Charlottesville"
"600 RAINIER RD, Charlottesville, VA",38.021309,-78.509393,1,rooftop,600,"Rainier Rd",,,Charlottesville,VA,"Albemarle County",22903,US,"City of Charlottesville"
"200 RIDGE ST, Charlottesville, VA",38.029765,-78.485528,1,range_interpolation,200,"State Rte 631",,,Charlottesville,VA,"Albemarle County",22902,US,"TIGER/Line® dataset from the US Census Bureau"
"400 GARRETT ST, Charlottesville, VA",38.027754,-78.481638,1,rooftop,400,"Garrett St",,,Charlottesville,VA,"Albemarle County",22902,US,"Virginia Geographic Information Network (VGIN)"
"600 E MARKET ST, Charlottesville, VA",38.030267,-78.477549,1,range_interpolation,600,"Market St E",,,Charlottesville,VA,"Albemarle County",22902,US,"TIGER/Line® dataset from the US Census Bureau"
"1400 E HIGH ST, Charlottesville, VA",38.03229,-78.463473,1,range_interpolation,1400,"High St E",,,Charlottesville,VA,"Albemarle County",22902,US,"TIGER/Line® dataset from the US Census Bureau"
"900 E HIGH ST, Charlottesville, VA",38.031215,-78.473866,1,range_interpolation,900,"State Rte 20",,,Charlottesville,VA,"Albemarle County",22902,US,"TIGER/Line® dataset from the US Census Bureau"
"600 RUGBY RD, Charlottesville, VA",38.041804,-78.499982,1,rooftop,600,"Rugby Rd",,,Charlottesville,VA,"Albemarle County",22903,US,"City of Charlottesville"
"1100 5TH ST SW, Charlottesville, VA",38.014495,-78.50005,1,range_interpolation,1100,"5th St SW",,,Charlottesville,VA,"Albemarle County",22902,US,"TIGER/Line® dataset from the US Census Bureau"
"1400 UNIVERSITY AVE, Charlottesville, VA",38.033951,-78.49996,1,rooftop,1400,"University Ave",,,Charlottesville,VA,"Albemarle County",22903,US,Albemarle
"400 14TH ST NW, Charlottesville, VA",38.037655,-78.497624,1,range_interpolation,400,"14th St NW",,,Charlottesville,VA,"Albemarle County",22903,US,"TIGER/Line® dataset from the US Census Bureau"
"1400 SHORT 18TH ST, Charlottesville, VA",38.026538,-78.462371,1,rooftop,1400,"Short 18th St",,,Charlottesville,VA,"Albemarle County",22902,US,"City of Charlottesville"
"200 W MAIN ST, Charlottesville, VA",38.030748,-78.482695,1,rooftop,200,"W Main St",,,Charlottesville,VA,"Albemarle County",22901,US,"City of Charlottesville"
"100 WESTWOOD CIR, Charlottesville, VA",38.043437,-78.480919,1,rooftop,100,"Westwood Cir",,,Charlottesville,VA,"Albemarle County",22903,US,"City of Charlottesville"
"2500 JEFFERSON PARK AVE, Charlottesville, VA",38.020243,-78.514161,1,rooftop,2500,"Jefferson Park Ave",,,Charlottesville,VA,"Albemarle County",22903,US,"City of Charlottesville"
"1800 UNIVERSITY CIR, Charlottesville, VA",38.041817,-78.501861,1,range_interpolation,1800,"University Cir",,,Charlottesville,VA,"Albemarle County",22903,US,"TIGER/Line® dataset from the US Census Bureau"
"800 ORANGEDALE AVE, Charlottesville, VA",38.021523,-78.497497,1,rooftop,800,"Orangedale Ave",,,Charlottesville,VA,"Albemarle County",22903,US,"City of Charlottesville"
"900 PARK ST, Charlottesville, VA",38.040447,-78.471766,1,range_interpolation,900,"Park St",,,Charlottesville,VA,"Albemarle County",22901,US,"TIGER/Line® dataset from the US Census Bureau"
"100 BAYLOR LN, Charlottesville, VA",38.018886,-78.492384,1,rooftop,100,"Baylor Ln",,,Charlottesville,VA,"Albemarle County",22902,US,"City of Charlottesville"
"600 MASON ST, Charlottesville, VA",38.019716,-78.465579,1,rooftop,600,"Mason St",,,Charlottesville,VA,"Albemarle County",22902,US,"City of Charlottesville"
"1100 EMMET ST N, Charlottesville, VA",38.051498,-78.5002,1,range_interpolation,1100,"Emmet St N",,,Charlottesville,VA,"Albemarle County",22903,US,"TIGER/Line® dataset from the US Census Bureau"
"200 CARLTON RD, Charlottesville, VA",38.02338,-78.468643,1,rooftop,200,"Carlton Rd",,,Charlottesville,VA,"Albemarle County",22902,US,"City of Charlottesville"
"200 HARTMANS MILL RD, Charlottesville, VA",38.019704,-78.488399,1,rooftop,200,"Hartman's Mill Rd",,,Charlottesville,VA,"Albemarle County",22902,US,"City of Charlottesville"
"100 E MAIN ST, Charlottesville, VA",38.030363,-78.481565,1,rooftop,100,"E Main St",,,Charlottesville,VA,"Albemarle County",22901,US,"City of Charlottesville"
"100 W MARKET ST, Charlottesville, VA",38.031682,-78.481145,0.8,range_interpolation,100,"Market St",,,Charlottesville,VA,"Albemarle County",22902,US,"TIGER/Line® dataset from the US Census Bureau"
"300 VALLEY RD EXT, Charlottesville, VA",37.798844,-78.49535,0.3,rooftop,300,"Valley St",,,Scottsville,VA,"Albemarle County",24590,US,"Virginia Geographic Information Network (VGIN)"
"800 CHERRY AVE, Charlottesville, VA",38.028394,-78.4925,1,range_interpolation,800,"Cherry Ave",,,Charlottesville,VA,"Albemarle County",22903,US,"TIGER/Line® dataset from the US Census Bureau"
"2200 JEFFERSON PARK AVE, Charlottesville, VA",38.025169,-78.514956,1,range_interpolation,2200,"Jefferson Park Ave",,,Charlottesville,VA,"Albemarle County",22903,US,"TIGER/Line® dataset from the US Census Bureau"
"900 ALTAVISTA AVE, Charlottesville, VA",38.018719,-78.478817,1,rooftop,900,"Altavista Ave",,,Charlottesville,VA,"Albemarle County",22902,US,"City of Charlottesville"
"100 10 1/2 ST NW, Charlottesville, VA",38.03256,-78.495288,1,range_interpolation,100,"10 1/2 St NW",,,Charlottesville,VA,"Albemarle County",22903,US,"TIGER/Line® dataset from the US Census Bureau"
"1500 DAIRY RD, Charlottesville, VA",38.052849,-78.48642,1,range_interpolation,1500,"Dairy Rd",,,Charlottesville,VA,"Albemarle County",22903,US,"TIGER/Line® dataset from the US Census Bureau"
"1400 MELBOURNE RD, Charlottesville, VA",38.052489,-78.475702,1,rooftop,1400,"Melbourne Rd",,,Charlottesville,VA,"Albemarle County",22902,US,"City of Charlottesville"
"1400 MELBOURNE RD, Charlottesville, VA",38.052489,-78.475702,1,rooftop,1400,"Melbourne Rd",,,Charlottesville,VA,"Albemarle County",22902,US,"City of Charlottesville"
"600 ALTAVISTA ST, Charlottesville, VA",38.020975,-78.483477,1,rooftop,600,"Altavista Ave",,,Charlottesville,VA,"Albemarle County",22902,US,"City of Charlottesville"
"500 HARRIS RD, Charlottesville, VA",38.014946,-78.503703,1,range_interpolation,500,"Harris Rd",,,Charlottesville,VA,"Albemarle County",22903,US,"TIGER/Line® dataset from the US Census Bureau"
"100 SOUTH ST, Charlottesville, VA",38.029193,-78.482007,0.9,rooftop,100,"E South St",,,Charlottesville,VA,"Albemarle County",22901,US,"City of Charlottesville"
"800 HARDY DR, Charlottesville, VA",38.033559,-78.490241,1,range_interpolation,800,"Hardy Dr",,,Charlottesville,VA,"Albemarle County",22903,US,"TIGER/Line® dataset from the US Census Bureau"
"400 5TH ST SW, Charlottesville, VA",38.028282,-78.489446,1,range_interpolation,400,"5th St SW",,,Charlottesville,VA,"Albemarle County",22903,US,"TIGER/Line® dataset from the US Census Bureau"
"900 FOREST ST, Charlottesville, VA",38.038169,-78.485496,1,range_interpolation,900,"Forest St",,,Charlottesville,VA,"Albemarle County",22903,US,"TIGER/Line® dataset from the US Census Bureau"
"900 FOREST ST, Charlottesville, VA",38.038169,-78.485496,1,range_interpolation,900,"Forest St",,,Charlottesville,VA,"Albemarle County",22903,US,"TIGER/Line® dataset from the US Census Bureau"
"1800 HYDRAULIC RD, Charlottesville, VA",38.060222,-78.490328,1,range_interpolation,1800,"Hydraulic Rd",,,Charlottesville,VA,"Albemarle County",22901,US,"TIGER/Line® dataset from the US Census Bureau"
"100 BLINCOE LN, Charlottesville, VA",38.016899,-78.483454,1,range_interpolation,100,"Blincoe Ln",,,Charlottesville,VA,"Albemarle County",22902,US,"TIGER/Line® dataset from the US Census Bureau"
"1400 AVON ST, Charlottesville, VA",38.018774,-78.483294,0.9,range_interpolation,1400,"Avon St",,,Charlottesville,VA,"Albemarle County",22902,US,"TIGER/Line® dataset from the US Census Bureau"
"1400 PEN PARK RD, Charlottesville, VA",38.04987,-78.451608,1,rooftop,1400,"Pen Park Rd",,,Charlottesville,VA,"Albemarle County",22901,US,"Virginia Geographic Information Network (VGIN)"
"1300 E MARKET ST, Charlottesville, VA",38.026214,-78.467407,1,range_interpolation,1300,"Market St E",,,Charlottesville,VA,"Albemarle County",22902,US,"TIGER/Line® dataset from the US Census Bureau"
"2100 IVY RD, Charlottesville, VA",38.042471,-78.511905,1,rooftop,2100,"Ivy Rd",,,Charlottesville,VA,"Albemarle County",22902,US,"City of Charlottesville"
"900 PRESTON AVE, Charlottesville, VA",38.037013,-78.489636,1,rooftop,900,"Preston Ave",,,Charlottesville,VA,"Albemarle County",22902,US,"City of Charlottesville"
"800 PROSPECT AVE, Charlottesville, VA",38.021516,-78.496843,1,range_interpolation,800,"Prospect Ave",,,Charlottesville,VA,"Albemarle County",22903,US,"TIGER/Line® dataset from the US Census Bureau"
"600 WATER ST, Charlottesville, VA",38.028772,-78.477348,0.9,rooftop,600,"E Water St",,,Charlottesville,VA,"Albemarle County",22903,US,"City of Charlottesville"
"200 OLD LYNCHBURG RD, Charlottesville, VA",38.015367,-78.514855,1,range_interpolation,200,"Old Lynchburg Rd",,,Charlottesville,VA,"Albemarle County",22903,US,"TIGER/Line® dataset from the US Census Bureau"
"1400 MELBOURNE RD, Charlottesville, VA",38.052489,-78.475702,1,rooftop,1400,"Melbourne Rd",,,Charlottesville,VA,"Albemarle County",22902,US,"City of Charlottesville"
"100 UNIVERSITY AVE, Charlottesville, VA",38.04355,-78.503401,0.6,range_interpolation,100,"University Cir",,,Charlottesville,VA,"Albemarle County",22903,US,"TIGER/Line® dataset from the US Census Bureau"
"1400 SHORT 18TH ST, Charlottesville, VA",38.026538,-78.462371,1,rooftop,1400,"Short 18th St",,,Charlottesville,VA,"Albemarle County",22902,US,"City of Charlottesville"
"1100 GRADY AVE, Charlottesville, VA",38.039136,-78.49401,0.81,nearest_rooftop_match,1104,"Grady Ave",,,Charlottesville,VA,"Albemarle County",22903,US,"City of Charlottesville"
"1100 MILLMONT ST, Charlottesville, VA",38.052642,-78.502484,1,range_interpolation,1100,"Millmont St",,,Charlottesville,VA,"Albemarle County",22903,US,"TIGER/Line® dataset from the US Census Bureau"
"1100 EMMET ST N, Charlottesville, VA",38.051498,-78.5002,1,range_interpolation,1100,"Emmet St N",,,Charlottesville,VA,"Albemarle County",22903,US,"TIGER/Line® dataset from the US Census Bureau"
"2300 ANGUS RD, Charlottesville, VA",38.061269,-78.497998,1,rooftop,2300,"Angus Rd",,,Charlottesville,VA,"Albemarle County",22901,US,"City of Charlottesville"
"1300 GORDON AVE, Charlottesville, VA",38.039001,-78.495834,1,range_interpolation,1300,"Gordon Ave",,,Charlottesville,VA,"Albemarle County",22903,US,"TIGER/Line® dataset from the US Census Bureau"
"400 14TH ST NW, Charlottesville, VA",38.037655,-78.497624,1,range_interpolation,400,"14th St NW",,,Charlottesville,VA,"Albemarle County",22903,US,"TIGER/Line® dataset from the US Census Bureau"
"500 PARK ST, Charlottesville, VA",38.03394,-78.475337,1,rooftop,500,"Park St",,,Charlottesville,VA,"Albemarle County",22902,US,"City of Charlottesville"
"1000 WERTLAND ST, Charlottesville, VA",38.033911,-78.494229,1,rooftop,1000,"Wertland St",,,Charlottesville,VA,"Albemarle County",22903,US,"City of Charlottesville"
"1000 EMMET ST N, Charlottesville, VA",38.050253,-78.50248,1,rooftop,1000,"Emmet St N",,,Charlottesville,VA,"Albemarle County",22903,US,"Virginia Geographic Information Network (VGIN)"
"200 RIDGE MCINTIRE RD, Charlottesville, VA",38.031294,-78.484883,1,range_interpolation,200,"Ridge Mcintire Rd",,,Charlottesville,VA,"Albemarle County",22903,US,"TIGER/Line® dataset from the US Census Bureau"
"400 W MAIN ST, Charlottesville, VA",38.030616,-78.487044,1,range_interpolation,400,"W Main St",,,Charlottesville,VA,"Albemarle County",22903,US,"TIGER/Line® dataset from the US Census Bureau"
"800 NASSAU ST, Charlottesville, VA",38.018617,-78.467535,1,range_interpolation,800,"Nassau St",,,Charlottesville,VA,"Albemarle County",22902,US,"TIGER/Line® dataset from the US Census Bureau"
"600 ROCK CREEK RD, Charlottesville, VA",38.053357,-78.426068,0.9,rooftop,600,"Rocky Hollow Rd",,,Charlottesville,VA,"Albemarle County",22911,US,Albemarle
"900 RIVES ST, Charlottesville, VA",38.017745,-78.46969,1,rooftop,900,"Rives St",,,Charlottesville,VA,"Albemarle County",22902,US,"City of Charlottesville"
"200 CLEVELAND AVE, Charlottesville, VA",38.020111,-78.512573,1,range_interpolation,200,"Cleveland Ave",,,Charlottesville,VA,"Albemarle County",22903,US,"TIGER/Line® dataset from the US Census Bureau"
"500 PARK ST, Charlottesville, VA",38.03394,-78.475337,1,rooftop,500,"Park St",,,Charlottesville,VA,"Albemarle County",22902,US,"City of Charlottesville"
"600 E MARKET ST, Charlottesville, VA",38.030267,-78.477549,1,range_interpolation,600,"Market St E",,,Charlottesville,VA,"Albemarle County",22902,US,"TIGER/Line® dataset from the US Census Bureau"
"1000 CHERRY AVE, Charlottesville, VA",38.026722,-78.497519,1,rooftop,1000,"Cherry Ave",,,Charlottesville,VA,"Albemarle County",22903,US,"City of Charlottesville"
"200 15TH ST NW, Charlottesville, VA",38.035162,-78.499549,1,rooftop,200,"15th St NW",,,Charlottesville,VA,"Albemarle County",22903,US,"Virginia Geographic Information Network (VGIN)"
"1400 HAMPTON ST, Charlottesville, VA",38.019047,-78.469152,1,range_interpolation,1400,"Hampton St",,,Charlottesville,VA,"Albemarle County",22902,US,"TIGER/Line® dataset from the US Census Bureau"
"100 1ST ST, Charlottesville, VA",38.030978,-78.481312,0.9,rooftop,100,"1st St N",,,Charlottesville,VA,"Albemarle County",22902,US,"Virginia Geographic Information Network (VGIN)"
"600 GRADY AVE., Charlottesville, VA",38.027502,-78.478977,0.4,range_interpolation,600,"Garrett St",,,Charlottesville,VA,"Albemarle County",22902,US,"TIGER/Line® dataset from the US Census Bureau"
"300 SOUTH ST, Charlottesville, VA",38.029879,-78.484025,0.9,range_interpolation,300,"South St W",,,Charlottesville,VA,"Albemarle County",22902,US,"TIGER/Line® dataset from the US Census Bureau"
"500 250 BYPASS, Charlottesville, VA",38.041096,-78.472378,0.69,nearest_rooftop_match,513,"250th Byp",,,Charlottesville,VA,"Albemarle County",22901,US,"Virginia Geographic Information Network (VGIN)"
"300 AVON ST, Charlottesville, VA",38.02679,-78.477406,1,rooftop,300,"Avon St",,,Charlottesville,VA,"Albemarle County",22901,US,"City of Charlottesville"
"500 STONEHENGE AVE, Charlottesville, VA",38.020107,-78.485793,1,rooftop,500,"Stonehenge Ave",,,Charlottesville,VA,"Albemarle County",22902,US,"City of Charlottesville"
"300 CARLTON RD, Charlottesville, VA",38.022432,-78.469845,1,rooftop,300,"Carlton Rd",,,Charlottesville,VA,"Albemarle County",22902,US,"City of Charlottesville"
"1600 LONG ST, Charlottesville, VA",38.034632,-78.459429,0.72,nearest_rooftop_match,1601,"Long St",,,Charlottesville,VA,"Albemarle County",22901,US,"City of Charlottesville"
"1600 EMMET ST N, Charlottesville, VA",38.057817,-78.493732,1,rooftop,1600,"Emmet St N",,,Charlottesville,VA,"Albemarle County",22901,US,"City of Charlottesville"
"300 15TH ST NW, Charlottesville, VA",38.036158,-78.499392,1,range_interpolation,300,"15th St NW",,,Charlottesville,VA,"Albemarle County",22903,US,"TIGER/Line® dataset from the US Census Bureau"
"100 GOODMAN ST, Charlottesville, VA",38.027592,-78.474548,1,range_interpolation,100,"Goodman St",,,Charlottesville,VA,"Albemarle County",22902,US,"TIGER/Line® dataset from the US Census Bureau"
"1600 UNIVERSITY AVE, Charlottesville, VA",38.034497,-78.500062,0.9,range_interpolation,1600,"University Ave",,,Charlottesville,VA,"Albemarle County",22903,US,"TIGER/Line® dataset from the US Census Bureau"
"700 PROSPECT AVE, Charlottesville, VA",38.024646,-78.494399,1,rooftop,700,"Prospect Ave",,,Charlottesville,VA,"Albemarle County",22903,US,"Virginia Geographic Information Network (VGIN)"
"1300 WELLFORD ST, Charlottesville, VA",38.048493,-78.486394,1,rooftop,1300,"Wellford St",,,Charlottesville,VA,"Albemarle County",22903,US,"City of Charlottesville"
"800 BOLLING AVE, Charlottesville, VA",38.022563,-78.478076,1,rooftop,800,"Bolling Ave",,,Charlottesville,VA,"Albemarle County",22902,US,"City of Charlottesville"
"800 ORANGEDALE AVE, Charlottesville, VA",38.021523,-78.497497,1,rooftop,800,"Orangedale Ave",,,Charlottesville,VA,"Albemarle County",22903,US,"City of Charlottesville"
"1700 CHESAPEAKE ST, Charlottesville, VA",38.024044,-78.458912,1,rooftop,1700,"Chesapeake St",,,Charlottesville,VA,"Albemarle County",22902,US,"City of Charlottesville"
"300 OLD LYNCHBURG RD, Charlottesville, VA",38.026588,-78.48045,0.33,place,,,,,Charlottesville,VA,"Charlottesville city",22902,US,"TIGER/Line® dataset from the US Census Bureau"
"400 GARRETT ST, Charlottesville, VA",38.027754,-78.481638,1,rooftop,400,"Garrett St",,,Charlottesville,VA,"Albemarle County",22902,US,"Virginia Geographic Information Network (VGIN)"
"100 14TH ST NW, Charlottesville, VA",38.034122,-78.499326,1,rooftop,100,"14th St NW",,,Charlottesville,VA,"Albemarle County",22903,US,"Virginia Geographic Information Network (VGIN)"
"100 W MAIN ST, Charlottesville, VA",38.030482,-78.481848,1,rooftop,100,"W Main St",,,Charlottesville,VA,"Albemarle County",22902,US,"Virginia Geographic Information Network (VGIN)"
"400 3RD ST NE, Charlottesville, VA",38.032381,-78.478954,1,range_interpolation,400,"3rd St NE",,,Charlottesville,VA,"Albemarle County",22902,US,"TIGER/Line® dataset from the US Census Bureau"
"100 STRATFORD CT, Charlottesville, VA",38.026284,-78.508749,1,range_interpolation,100,"Stratford Ct",,,Charlottesville,VA,"Albemarle County",22903,US,"TIGER/Line® dataset from the US Census Bureau"
"100 MONTICELLO AVE, Charlottesville, VA",38.027986,-78.484488,1,range_interpolation,100,"Monticello Ave",,,Charlottesville,VA,"Albemarle County",22902,US,"TIGER/Line® dataset from the US Census Bureau"
"4000 CITY WALK WAY, Charlottesville, VA",38.026588,-78.48045,0.33,place,,,,,Charlottesville,VA,"Charlottesville city",22902,US,"TIGER/Line® dataset from the US Census Bureau"
"1900 EMMET ST N, Charlottesville, VA",38.060855,-78.492224,1,range_interpolation,1900,"Emmet St N",,,Charlottesville,VA,"Albemarle County",22903,US,"TIGER/Line® dataset from the US Census Bureau"
"200 RIDGE ST, Charlottesville, VA",38.029765,-78.485528,1,range_interpolation,200,"State Rte 631",,,Charlottesville,VA,"Albemarle County",22902,US,"TIGER/Line® dataset from the US Census Bureau"
"600 W MAIN ST, Charlottesville, VA",38.030966,-78.488496,1,rooftop,600,"W Main St",,,Charlottesville,VA,"Albemarle County",22903,US,"Virginia Geographic Information Network (VGIN)"
"1100 SEMINOLE TRL, Charlottesville, VA",38.066776,-78.49006,0.76,nearest_rooftop_match,1070,"Seminole Trl",,,Charlottesville,VA,"Albemarle County",22901,US,"Virginia Geographic Information Network (VGIN)"
"800 ROCKLAND AVE, Charlottesville, VA",38.017166,-78.482095,1,rooftop,800,"Rockland Ave",,,Charlottesville,VA,"Albemarle County",22902,US,"City of Charlottesville"
"100 E SOUTH ST, Charlottesville, VA",38.029193,-78.482007,1,rooftop,100,"E South St",,,Charlottesville,VA,"Albemarle County",22901,US,"City of Charlottesville"
"1300 CARLTON AVE, Charlottesville, VA",38.022084,-78.469217,1,rooftop,1300,"Carlton Ave",,,Charlottesville,VA,"Albemarle County",22902,US,"City of Charlottesville"
"100 E MAIN ST, Charlottesville, VA",38.030363,-78.481565,1,rooftop,100,"E Main St",,,Charlottesville,VA,"Albemarle County",22901,US,"City of Charlottesville"
"2200 ANGUS RD, Charlottesville, VA",38.060894,-78.49691,1,rooftop,2200,"Angus Rd",,,Charlottesville,VA,"Albemarle County",22901,US,"City of Charlottesville"
"200 CARLTON RD, Charlottesville, VA",38.02338,-78.468643,1,rooftop,200,"Carlton Rd",,,Charlottesville,VA,"Albemarle County",22902,US,"City of Charlottesville"
"100 CARLTON RD, Charlottesville, VA",38.026723,-78.468572,1,rooftop,100,"Carlton Rd",,,Charlottesville,VA,"Albemarle County",22902,US,"City of Charlottesville"
"1100 WERTLAND ST, Charlottesville, VA",38.034035,-78.495713,1,rooftop,1100,"Wertland St",,,Charlottesville,VA,"Albemarle County",22903,US,"City of Charlottesville"
"500 W MAIN ST, Charlottesville, VA",38.030788,-78.487892,1,rooftop,500,"W Main St",,,Charlottesville,VA,"Albemarle County",22903,US,"Virginia Geographic Information Network (VGIN)"
"500 W MAIN ST, Charlottesville, VA",38.030788,-78.487892,1,rooftop,500,"W Main St",,,Charlottesville,VA,"Albemarle County",22903,US,"Virginia Geographic Information Network (VGIN)"
"500 W MAIN ST, Charlottesville, VA",38.030788,-78.487892,1,rooftop,500,"W Main St",,,Charlottesville,VA,"Albemarle County",22903,US,"Virginia Geographic Information Network (VGIN)"
"500 W MAIN ST, Charlottesville, VA",38.030788,-78.487892,1,rooftop,500,"W Main St",,,Charlottesville,VA,"Albemarle County",22903,US,"Virginia Geographic Information Network (VGIN)"
"700 6TH ST SE, Charlottesville, VA",38.025291,-78.480685,1,range_interpolation,700,"6th St SE",,,Charlottesville,VA,"Albemarle County",22902,US,"TIGER/Line® dataset from the US Census Bureau"
"1000 W MAIN ST, Charlottesville, VA",38.031987,-78.49551,1,rooftop,1000,"W Main St",,,Charlottesville,VA,"Albemarle County",22903,US,"City of Charlottesville"
"600 E MARKET ST, Charlottesville, VA",38.030267,-78.477549,1,range_interpolation,600,"Market St E",,,Charlottesville,VA,"Albemarle County",22902,US,"TIGER/Line® dataset from the US Census Bureau"
"1400 MELBOURNE RD, Charlottesville, VA",38.052489,-78.475702,1,rooftop,1400,"Melbourne Rd",,,Charlottesville,VA,"Albemarle County",22902,US,"City of Charlottesville"
"1100 5TH ST EXT, Charlottesville, VA",38.014495,-78.50005,0.9,range_interpolation,1100,"State Rte 631",,,Charlottesville,VA,"Albemarle County",22902,US,"TIGER/Line® dataset from the US Census Bureau"
"400 9TH ST NW, Charlottesville, VA",38.035398,-78.490828,1,range_interpolation,400,"9th St NW",,,Charlottesville,VA,"Albemarle County",22903,US,"TIGER/Line® dataset from the US Census Bureau"
"1800 MONTICELLO RD, Charlottesville, VA",38.015537,-78.472869,1,rooftop,1800,"Monticello Rd",,,Charlottesville,VA,"Albemarle County",22903,US,"City of Charlottesville"
"1100 E HIGH ST, Charlottesville, VA",38.03154,-78.47007,1,rooftop,1100,"E High St",,,Charlottesville,VA,"Albemarle County",22902,US,"City of Charlottesville"
"1100 5TH ST SW, Charlottesville, VA",38.014495,-78.50005,1,range_interpolation,1100,"5th St SW",,,Charlottesville,VA,"Albemarle County",22902,US,"TIGER/Line® dataset from the US Census Bureau"
"400 4TH ST, Charlottesville, VA",38.032137,-78.478169,0.9,range_interpolation,400,"4th St NE",,,Charlottesville,VA,"Albemarle County",22902,US,"TIGER/Line® dataset from the US Census Bureau"
"1400 MELBOURNE RD, Charlottesville, VA",38.052489,-78.475702,1,rooftop,1400,"Melbourne Rd",,,Charlottesville,VA,"Albemarle County",22902,US,"City of Charlottesville"
"1500 6TH ST SE, Charlottesville, VA",38.018683,-78.484921,1,rooftop,1500,"6th St SE",,,Charlottesville,VA,"Albemarle County",22902,US,"City of Charlottesville"
"1000 PRESTON AVE, Charlottesville, VA",38.039186,-78.491586,1,rooftop,1000,"Preston Ave",,,Charlottesville,VA,"Albemarle County",22901,US,"City of Charlottesville"
"1400 MELBOURNE RD, Charlottesville, VA",38.052489,-78.475702,1,rooftop,1400,"Melbourne Rd",,,Charlottesville,VA,"Albemarle County",22902,US,"City of Charlottesville"
"400 9TH ST NW, Charlottesville, VA",38.035398,-78.490828,1,range_interpolation,400,"9th St NW",,,Charlottesville,VA,"Albemarle County",22903,US,"TIGER/Line® dataset from the US Census Bureau"
"1800 EMMET ST N, Charlottesville, VA",38.059769,-78.493071,1,range_interpolation,1800,"Emmet St N",,,Charlottesville,VA,"Albemarle County",22903,US,"TIGER/Line® dataset from the US Census Bureau"
"900 ANDERSON ST, Charlottesville, VA",38.035698,-78.490828,1,range_interpolation,900,"Anderson St",,,Charlottesville,VA,"Albemarle County",22903,US,"TIGER/Line® dataset from the US Census Bureau"
"100 W MAIN ST, Charlottesville, VA",38.030482,-78.481848,1,rooftop,100,"W Main St",,,Charlottesville,VA,"Albemarle County",22902,US,"Virginia Geographic Information Network (VGIN)"
"400 RUGBY RD, Charlottesville, VA",38.039714,-78.501052,1,rooftop,400,"Rugby Rd",,,Charlottesville,VA,"Albemarle County",22903,US,"City of Charlottesville"
"1700 JEFFERSON PARK AVE, Charlottesville, VA",38.030234,-78.508221,1,rooftop,1700,"Jefferson Park Ave",,,Charlottesville,VA,"Albemarle County",22903,US,"City of Charlottesville"
"2500 JEFFERSON PARK AVE, Charlottesville, VA",38.020243,-78.514161,1,rooftop,2500,"Jefferson Park Ave",,,Charlottesville,VA,"Albemarle County",22903,US,"City of Charlottesville"
"100 E MARKET ST, Charlottesville, VA",38.031382,-78.481145,1,range_interpolation,100,"Market St E",,,Charlottesville,VA,"Albemarle County",22902,US,"TIGER/Line® dataset from the US Census Bureau"
"100 E MARKET ST, Charlottesville, VA",38.031382,-78.481145,1,range_interpolation,100,"Market St E",,,Charlottesville,VA,"Albemarle County",22902,US,"TIGER/Line® dataset from the US Census Bureau"
"600 E MARKET ST, Charlottesville, VA",38.030267,-78.477549,1,range_interpolation,600,"Market St E",,,Charlottesville,VA,"Albemarle County",22902,US,"TIGER/Line® dataset from the US Census Bureau"
"800 PAGE ST, Charlottesville, VA",38.0342,-78.490023,1,range_interpolation,800,"Page St",,,Charlottesville,VA,"Albemarle County",22903,US,"TIGER/Line® dataset from the US Census Bureau"
"1100 EMMET ST N, Charlottesville, VA",38.051498,-78.5002,1,range_interpolation,1100,"Emmet St N",,,Charlottesville,VA,"Albemarle County",22903,US,"TIGER/Line® dataset from the US Census Bureau"
"100 W MARKET ST, Charlottesville, VA",38.031682,-78.481145,0.8,range_interpolation,100,"Market St",,,Charlottesville,VA,"Albemarle County",22902,US,"TIGER/Line® dataset from the US Census Bureau"
"1100 EMMET ST, Charlottesville, VA",38.051498,-78.5002,0.9,range_interpolation,1100,"Emmet St N",,,Charlottesville,VA,"Albemarle County",22903,US,"TIGER/Line® dataset from the US Census Bureau"
"1300 CARLTON AVE, Charlottesville, VA",38.022084,-78.469217,1,rooftop,1300,"Carlton Ave",,,Charlottesville,VA,"Albemarle County",22902,US,"City of Charlottesville"
"1800 HYDRAULIC RD, Charlottesville, VA",38.060222,-78.490328,1,range_interpolation,1800,"Hydraulic Rd",,,Charlottesville,VA,"Albemarle County",22901,US,"TIGER/Line® dataset from the US Census Bureau"
"1200 EMMET ST W, Charlottesville, VA",38.052819,-78.498406,0.9,rooftop,1200,"Emmet St N",,,Charlottesville,VA,"Albemarle County",22903,US,"City of Charlottesville"
"1700 JEFFERSON PARK AVE, Charlottesville, VA",38.030234,-78.508221,1,rooftop,1700,"Jefferson Park Ave",,,Charlottesville,VA,"Albemarle County",22903,US,"City of Charlottesville"
"200 E MARKET ST, Charlottesville, VA",38.031121,-78.480304,1,rooftop,200,"E Market St",,,Charlottesville,VA,"Albemarle County",22902,US,"City of Charlottesville"
"1100 EMMET ST N, Charlottesville, VA",38.051498,-78.5002,1,range_interpolation,1100,"Emmet St N",,,Charlottesville,VA,"Albemarle County",22903,US,"TIGER/Line® dataset from the US Census Bureau"
"800 HARDY DR, Charlottesville, VA",38.033559,-78.490241,1,range_interpolation,800,"Hardy Dr",,,Charlottesville,VA,"Albemarle County",22903,US,"TIGER/Line® dataset from the US Census Bureau"
"1400 MELBOURNE RD, Charlottesville, VA",38.052489,-78.475702,1,rooftop,1400,"Melbourne Rd",,,Charlottesville,VA,"Albemarle County",22902,US,"City of Charlottesville"
"800 BOLLING AVE, Charlottesville, VA",38.022563,-78.478076,1,rooftop,800,"Bolling Ave",,,Charlottesville,VA,"Albemarle County",22902,US,"City of Charlottesville"
"500 14TH ST NW, Charlottesville, VA",38.03928,-78.496473,1,rooftop,500,"14th St NW",,,Charlottesville,VA,"Albemarle County",22903,US,"City of Charlottesville"
"1100 GROVE ST, Charlottesville, VA",38.029501,-78.499186,1,range_interpolation,1100,"Grove St",,,Charlottesville,VA,"Albemarle County",22903,US,"TIGER/Line® dataset from the US Census Bureau"
"1200 AUGUSTA ST, Charlottesville, VA",38.042828,-78.48473,1,rooftop,1200,"Augusta St",,,Charlottesville,VA,"Albemarle County",22903,US,"City of Charlottesville"
"600 E MARKET ST, Charlottesville, VA",38.030267,-78.477549,1,range_interpolation,600,"Market St E",,,Charlottesville,VA,"Albemarle County",22902,US,"TIGER/Line® dataset from the US Census Bureau"
"1300 AVON ST, Charlottesville, VA",38.019865,-78.48253,1,range_interpolation,1300,"Avon St",,,Charlottesville,VA,"Albemarle County",22902,US,"TIGER/Line® dataset from the US Census Bureau"
"400 13TH ST NW, Charlottesville, VA",38.036718,-78.496805,1,range_interpolation,400,"13th St NW",,,Charlottesville,VA,"Albemarle County",22903,US,"TIGER/Line® dataset from the US Census Bureau"
"200 250 BYPASS, Charlottesville, VA",38.026588,-78.48045,0.33,place,,,,,Charlottesville,VA,"Charlottesville city",22902,US,"TIGER/Line® dataset from the US Census Bureau"
"200 250 BYPASS, Charlottesville, VA",38.026588,-78.48045,0.33,place,,,,,Charlottesville,VA,"Charlottesville city",22902,US,"TIGER/Line® dataset from the US Census Bureau"
"2000 IVY RD, Charlottesville, VA",38.041645,-78.509653,1,range_interpolation,2000,"Ivy Rd",,,Charlottesville,VA,"Albemarle County",22903,US,"TIGER/Line® dataset from the US Census Bureau"
"400 2ND ST NE, Charlottesville, VA",38.032619,-78.479731,1,range_interpolation,400,"2nd St NE",,,Charlottesville,VA,"Albemarle County",22902,US,"TIGER/Line® dataset from the US Census Bureau"
"700 PRESTON AVE, Charlottesville, VA",38.03578,-78.486696,1,range_interpolation,700,"Preston Ave",,,Charlottesville,VA,"Albemarle County",22903,US,"TIGER/Line® dataset from the US Census Bureau"
"500 RUGBY RD, Charlottesville, VA",38.040639,-78.501015,1,range_interpolation,500,"Rugby Rd",,,Charlottesville,VA,"Albemarle County",22903,US,"TIGER/Line® dataset from the US Census Bureau"
"500 HARRIS RD, Charlottesville, VA",38.014946,-78.503703,1,range_interpolation,500,"Harris Rd",,,Charlottesville,VA,"Albemarle County",22903,US,"TIGER/Line® dataset from the US Census Bureau"
"1000 CHERRY AVE, Charlottesville, VA",38.026722,-78.497519,1,rooftop,1000,"Cherry Ave",,,Charlottesville,VA,"Albemarle County",22903,US,"City of Charlottesville"
"1900 EMMET ST N, Charlottesville, VA",38.060855,-78.492224,1,range_interpolation,1900,"Emmet St N",,,Charlottesville,VA,"Albemarle County",22903,US,"TIGER/Line® dataset from the US Census Bureau"
"1900 EMMET ST N, Charlottesville, VA",38.060855,-78.492224,1,range_interpolation,1900,"Emmet St N",,,Charlottesville,VA,"Albemarle County",22903,US,"TIGER/Line® dataset from the US Census Bureau"
"1400 MELBOURNE RD, Charlottesville, VA",38.052489,-78.475702,1,rooftop,1400,"Melbourne Rd",,,Charlottesville,VA,"Albemarle County",22902,US,"City of Charlottesville"
"100 W JEFFERSON ST, Charlottesville, VA",38.032133,-78.481004,1,rooftop,100,"W Jefferson St",,,Charlottesville,VA,"Albemarle County",22902,US,"City of Charlottesville"
"1200 JOHN ST, Charlottesville, VA",38.036463,-78.496095,1,range_interpolation,1200,"John St",,,Charlottesville,VA,"Albemarle County",22903,US,"TIGER/Line® dataset from the US Census Bureau"
"1200 HOLMES AVE, Charlottesville, VA",38.045976,-78.460828,1,rooftop,1200,"Holmes Ave",,,Charlottesville,VA,"Albemarle County",22901,US,"City of Charlottesville"
"600 CONCORD AVE, Charlottesville, VA",38.037719,-78.483196,1,rooftop,600,"Concord Ave",,,Charlottesville,VA,"Albemarle County",22903,US,"City of Charlottesville"
"600 E MARKET ST, Charlottesville, VA",38.030267,-78.477549,1,range_interpolation,600,"Market St E",,,Charlottesville,VA,"Albemarle County",22902,US,"TIGER/Line® dataset from the US Census Bureau"
"600 E MARKET ST, Charlottesville, VA",38.030267,-78.477549,1,range_interpolation,600,"Market St E",,,Charlottesville,VA,"Albemarle County",22902,US,"TIGER/Line® dataset from the US Census Bureau"
"800 NASSAU ST, Charlottesville, VA",38.018617,-78.467535,1,range_interpolation,800,"Nassau St",,,Charlottesville,VA,"Albemarle County",22902,US,"TIGER/Line® dataset from the US Census Bureau"
"700 W MAIN ST, Charlottesville, VA",38.031595,-78.489768,1,range_interpolation,700,"W Main St",,,Charlottesville,VA,"Albemarle County",22903,US,"TIGER/Line® dataset from the US Census Bureau"
"600 E MARKET ST, Charlottesville, VA",38.030267,-78.477549,1,range_interpolation,600,"Market St E",,,Charlottesville,VA,"Albemarle County",22902,US,"TIGER/Line® dataset from the US Census Bureau"
"600 E MARKET ST, Charlottesville, VA",38.030267,-78.477549,1,range_interpolation,600,"Market St E",,,Charlottesville,VA,"Albemarle County",22902,US,"TIGER/Line® dataset from the US Census Bureau"
"400 QUARRY RD, Charlottesville, VA",38.014526,-78.473591,1,range_interpolation,400,"Quarry Rd",,,Charlottesville,VA,"Albemarle County",22902,US,"TIGER/Line® dataset from the US Census Bureau"
"400 PARK ST, Charlottesville, VA",38.031779,-78.476942,1,range_interpolation,400,"Park St",,,Charlottesville,VA,"Albemarle County",22902,US,"TIGER/Line® dataset from the US Census Bureau"
"1400 MELBOURNE RD, Charlottesville, VA",38.052489,-78.475702,1,rooftop,1400,"Melbourne Rd",,,Charlottesville,VA,"Albemarle County",22902,US,"City of Charlottesville"
"1300 LONG ST, Charlottesville, VA",38.035319,-78.4627,1,rooftop,1300,"Long St",,,Charlottesville,VA,"Albemarle County",22901,US,"City of Charlottesville"
"300 1ST ST NW, Charlottesville, VA",38.032139,-78.480822,0.8,range_interpolation,300,"1st St N",,,Charlottesville,VA,"Albemarle County",22902,US,"TIGER/Line® dataset from the US Census Bureau"
"600 E MARKET ST, Charlottesville, VA",38.030267,-78.477549,1,range_interpolation,600,"Market St E",,,Charlottesville,VA,"Albemarle County",22902,US,"TIGER/Line® dataset from the US Census Bureau"
"1300 JOHN ST, Charlottesville, VA",38.036807,-78.497026,1,rooftop,1300,"John St",,,Charlottesville,VA,"Albemarle County",22903,US,"Virginia Geographic Information Network (VGIN)"
"300 14TH ST NW, Charlottesville, VA",38.035916,-78.498522,1,range_interpolation,300,"14th St NW",,,Charlottesville,VA,"Albemarle County",22903,US,"TIGER/Line® dataset from the US Census Bureau"
"500 PATON ST, Charlottesville, VA",38.026937,-78.501907,0.8,nearest_rooftop_match,508,"Paton St",,,Charlottesville,VA,"Albemarle County",22903,US,"Virginia Geographic Information Network (VGIN)"
"400 4TH ST NW, Charlottesville, VA",38.033577,-78.485453,1,range_interpolation,400,"4th St NW",,,Charlottesville,VA,"Albemarle County",22903,US,"TIGER/Line® dataset from the US Census Bureau"
"1500 BROAD AVE, Charlottesville, VA",38.024317,-78.504687,1,rooftop,1500,"Broad Ave",,,Charlottesville,VA,"Albemarle County",22903,US,"City of Charlottesville"
"700 PROSPECT AVE, Charlottesville, VA",38.024646,-78.494399,1,rooftop,700,"Prospect Ave",,,Charlottesville,VA,"Albemarle County",22903,US,"Virginia Geographic Information Network (VGIN)"
"700 PROSPECT AVE, Charlottesville, VA",38.024646,-78.494399,1,rooftop,700,"Prospect Ave",,,Charlottesville,VA,"Albemarle County",22903,US,"Virginia Geographic Information Network (VGIN)"
"700 FARISH LANE, Charlottesville, VA",38.034173,-78.47394,1,range_interpolation,700,"Farish St",,,Charlottesville,VA,"Albemarle County",22902,US,"TIGER/Line® dataset from the US Census Bureau"
"2000 BARRACKS RD, Charlottesville, VA",38.050766,-78.498093,0.76,nearest_rooftop_match,2028,"Barracks Rd",,,Charlottesville,VA,"Albemarle County",22903,US,"Virginia Geographic Information Network (VGIN)"
"200 CARLTON RD, Charlottesville, VA",38.02338,-78.468643,1,rooftop,200,"Carlton Rd",,,Charlottesville,VA,"Albemarle County",22902,US,"City of Charlottesville"
"900 RIVES ST, Charlottesville, VA",38.017745,-78.46969,1,rooftop,900,"Rives St",,,Charlottesville,VA,"Albemarle County",22902,US,"City of Charlottesville"
"200 CARLTON RD, Charlottesville, VA",38.02338,-78.468643,1,rooftop,200,"Carlton Rd",,,Charlottesville,VA,"Albemarle County",22902,US,"City of Charlottesville"
"2000 BARRACKS RD, Charlottesville, VA",38.050766,-78.498093,0.76,nearest_rooftop_match,2028,"Barracks Rd",,,Charlottesville,VA,"Albemarle County",22903,US,"Virginia Geographic Information Network (VGIN)"
"400 MONROE LN, Charlottesville, VA",38.031716,-78.50267,1,rooftop,400,"Monroe Ln",,,Charlottesville,VA,"Albemarle County",22903,US,"Virginia Geographic Information Network (VGIN)"
"1800 MONTICELLO RD, Charlottesville, VA",38.015537,-78.472869,1,rooftop,1800,"Monticello Rd",,,Charlottesville,VA,"Albemarle County",22903,US,"City of Charlottesville"
"300 MEADE AVE, Charlottesville, VA",38.027733,-78.465583,1,rooftop,300,"Meade Ave",,,Charlottesville,VA,"Albemarle County",22902,US,"City of Charlottesville"
"900 GRADY AVE, Charlottesville, VA",38.038132,-78.490071,1,range_interpolation,900,"Grady Ave",,,Charlottesville,VA,"Albemarle County",22903,US,"TIGER/Line® dataset from the US Census Bureau"
"100 CARLTON RD, Charlottesville, VA",38.026723,-78.468572,1,rooftop,100,"Carlton Rd",,,Charlottesville,VA,"Albemarle County",22902,US,"City of Charlottesville"
"1100 EMMET ST N, Charlottesville, VA",38.051498,-78.5002,1,range_interpolation,1100,"Emmet St N",,,Charlottesville,VA,"Albemarle County",22903,US,"TIGER/Line® dataset from the US Census Bureau"
"200 RIDGE MCINTIRE RD, Charlottesville, VA",38.031294,-78.484883,1,range_interpolation,200,"Ridge Mcintire Rd",,,Charlottesville,VA,"Albemarle County",22903,US,"TIGER/Line® dataset from the US Census Bureau"
"1300 E MARKET ST, Charlottesville, VA",38.026214,-78.467407,1,range_interpolation,1300,"Market St E",,,Charlottesville,VA,"Albemarle County",22902,US,"TIGER/Line® dataset from the US Census Bureau"
"1500 DAIRY RD, Charlottesville, VA",38.052849,-78.48642,1,range_interpolation,1500,"Dairy Rd",,,Charlottesville,VA,"Albemarle County",22903,US,"TIGER/Line® dataset from the US Census Bureau"
"400 PATON ST, Charlottesville, VA",38.028009,-78.5024,1,range_interpolation,400,"Paton St",,,Charlottesville,VA,"Albemarle County",22903,US,"TIGER/Line® dataset from the US Census Bureau"
"1400 EMMET ST N, Charlottesville, VA",38.055785,-78.496363,1,range_interpolation,1400,"Emmet St N",,,Charlottesville,VA,"Albemarle County",22903,US,"TIGER/Line® dataset from the US Census Bureau"
"500 DICE ST, Charlottesville, VA",38.029197,-78.48885,1,range_interpolation,500,"Dice St",,,Charlottesville,VA,"Albemarle County",22903,US,"TIGER/Line® dataset from the US Census Bureau"
"1200 WERTLAND ST, Charlottesville, VA",38.034171,-78.496505,1,rooftop,1200,"Wertland St",,,Charlottesville,VA,"Albemarle County",22903,US,"Virginia Geographic Information Network (VGIN)"
"500 PARK ST, Charlottesville, VA",38.03394,-78.475337,1,rooftop,500,"Park St",,,Charlottesville,VA,"Albemarle County",22902,US,"City of Charlottesville"
"200 5TH ST SW, Charlottesville, VA",38.030475,-78.488002,1,range_interpolation,200,"5th St SW",,,Charlottesville,VA,"Albemarle County",22903,US,"TIGER/Line® dataset from the US Census Bureau"
"600 10 1/2 ST NW, Charlottesville, VA",38.039708,-78.492036,1,range_interpolation,600,"10 1/2 St NW",,,Charlottesville,VA,"Albemarle County",22903,US,"TIGER/Line® dataset from the US Census Bureau"
"300 KENT RD, Charlottesville, VA",38.040765,-78.515131,1,range_interpolation,300,"Kent Rd",,,Charlottesville,VA,"Albemarle County",22903,US,"TIGER/Line® dataset from the US Census Bureau"
"1300 BELLEVIEW AVE, Charlottesville, VA",38.037518,-78.459538,1,rooftop,1300,"Belleview Ave",,,Charlottesville,VA,"Albemarle County",22901,US,"City of Charlottesville"
"NA UNIVERSITY CIR, Charlottesville, VA",38.026588,-78.48045,1,place,,,,,Charlottesville,VA,"Charlottesville city",22902,US,"TIGER/Line® dataset from the US Census Bureau"
"1400 MELBOURNE RD, Charlottesville, VA",38.052489,-78.475702,1,rooftop,1400,"Melbourne Rd",,,Charlottesville,VA,"Albemarle County",22902,US,"City of Charlottesville"
"400 E JEFFERSON ST, Charlottesville, VA",38.031372,-78.478492,0.82,nearest_rooftop_match,402,"E Jefferson St",,,Charlottesville,VA,"Albemarle County",22902,US,"City of Charlottesville"
"900 GROVE ST, Charlottesville, VA",38.030256,-78.495704,1,range_interpolation,900,"Grove St",,,Charlottesville,VA,"Albemarle County",22903,US,"TIGER/Line® dataset from the US Census Bureau"
"100 RIDGE ST, Charlottesville, VA",38.029753,-78.484568,1,rooftop,100,"Ridge St",,,Charlottesville,VA,"Albemarle County",22901,US,"City of Charlottesville"
"300 E MAIN ST, Charlottesville, VA",38.029931,-78.48003,1,rooftop,300,"E Main St",,,Charlottesville,VA,"Albemarle County",22902,US,"Virginia Geographic Information Network (VGIN)"
"500 CASTALIA ST, Charlottesville, VA",38.075169,-78.472008,0.1,street_center,,"Castle Ct",,,Charlottesville,VA,"Albemarle County",22901,US,"TIGER/Line® dataset from the US Census Bureau"
"1400 HAMPTON ST, Charlottesville, VA",38.019047,-78.469152,1,range_interpolation,1400,"Hampton St",,,Charlottesville,VA,"Albemarle County",22902,US,"TIGER/Line® dataset from the US Census Bureau"
"400 4TH ST NW, Charlottesville, VA",38.033577,-78.485453,1,range_interpolation,400,"4th St NW",,,Charlottesville,VA,"Albemarle County",22903,US,"TIGER/Line® dataset from the US Census Bureau"
"600 PRESTON AVE, Charlottesville, VA",38.034938,-78.486011,1,rooftop,600,"Preston Ave",,,Charlottesville,VA,"Albemarle County",22903,US,"City of Charlottesville"
"1100 SEMINOLE TRL, Charlottesville, VA",38.066776,-78.49006,0.76,nearest_rooftop_match,1070,"Seminole Trl",,,Charlottesville,VA,"Albemarle County",22901,US,"Virginia Geographic Information Network (VGIN)"
"900 MONTROSE AVE, Charlottesville, VA",38.020316,-78.477668,1,rooftop,900,"Montrose Ave",,,Charlottesville,VA,"Albemarle County",22902,US,"City of Charlottesville"
"1400 HAMPTON ST, Charlottesville, VA",38.019047,-78.469152,1,range_interpolation,1400,"Hampton St",,,Charlottesville,VA,"Albemarle County",22902,US,"TIGER/Line® dataset from the US Census Bureau"
"1800 MONTICELLO RD, Charlottesville, VA",38.015537,-78.472869,1,rooftop,1800,"Monticello Rd",,,Charlottesville,VA,"Albemarle County",22903,US,"City of Charlottesville"
"2200 BRANDYWINE DR, Charlottesville, VA",38.064214,-78.475111,1,rooftop,2200,"Brandywine Dr",,,Charlottesville,VA,"Albemarle County",22901,US,"City of Charlottesville"
"1200 HOLMES AVE, Charlottesville, VA",38.045976,-78.460828,1,rooftop,1200,"Holmes Ave",,,Charlottesville,VA,"Albemarle County",22901,US,"City of Charlottesville"
"600 E MARKET ST, Charlottesville, VA",38.030267,-78.477549,1,range_interpolation,600,"Market St E",,,Charlottesville,VA,"Albemarle County",22902,US,"TIGER/Line® dataset from the US Census Bureau"
"1900 EMMET ST, Charlottesville, VA",38.060855,-78.492224,0.9,range_interpolation,1900,"Emmet St N",,,Charlottesville,VA,"Albemarle County",22903,US,"TIGER/Line® dataset from the US Census Bureau"
"400 14TH ST NW, Charlottesville, VA",38.037655,-78.497624,1,range_interpolation,400,"14th St NW",,,Charlottesville,VA,"Albemarle County",22903,US,"TIGER/Line® dataset from the US Census Bureau"
"800 HARDY DR, Charlottesville, VA",38.033559,-78.490241,1,range_interpolation,800,"Hardy Dr",,,Charlottesville,VA,"Albemarle County",22903,US,"TIGER/Line® dataset from the US Census Bureau"
"200 ELLIOTT AVE, Charlottesville, VA",38.026588,-78.48045,0.33,place,,,,,Charlottesville,VA,"Charlottesville city",22902,US,"TIGER/Line® dataset from the US Census Bureau"
"800 HARDY DR, Charlottesville, VA",38.033559,-78.490241,1,range_interpolation,800,"Hardy Dr",,,Charlottesville,VA,"Albemarle County",22903,US,"TIGER/Line® dataset from the US Census Bureau"
"300 15TH ST NW, Charlottesville, VA",38.036158,-78.499392,1,range_interpolation,300,"15th St NW",,,Charlottesville,VA,"Albemarle County",22903,US,"TIGER/Line® dataset from the US Census Bureau"
"500 RUGBY RD, Charlottesville, VA",38.040639,-78.501015,1,range_interpolation,500,"Rugby Rd",,,Charlottesville,VA,"Albemarle County",22903,US,"TIGER/Line® dataset from the US Census Bureau"
"1300 WERTLAND ST, Charlottesville, VA",38.034284,-78.498138,1,rooftop,1300,"Wertland St",,,Charlottesville,VA,"Albemarle County",22903,US,"City of Charlottesville"
"900 1ST ST S, Charlottesville, VA",38.022908,-78.485672,1,rooftop,900,"1st St S",,,Charlottesville,VA,"Albemarle County",22902,US,"Virginia Geographic Information Network (VGIN)"
"1300 AVON ST, Charlottesville, VA",38.019865,-78.48253,1,range_interpolation,1300,"Avon St",,,Charlottesville,VA,"Albemarle County",22902,US,"TIGER/Line® dataset from the US Census Bureau"
"9100 EMMET ST N, Charlottesville, VA",38.049707,-78.502162,0.6,street_center,,"Emmet St N",,,Charlottesville,VA,"Albemarle County",22903,US,"TIGER/Line® dataset from the US Census Bureau"
"100 E MARKET ST, Charlottesville, VA",38.031382,-78.481145,1,range_interpolation,100,"Market St E",,,Charlottesville,VA,"Albemarle County",22902,US,"TIGER/Line® dataset from the US Census Bureau"
"1600 6TH ST SE, Charlottesville, VA",38.016682,-78.485939,1,rooftop,1600,"6th St SE",,,Charlottesville,VA,"Albemarle County",22901,US,"City of Charlottesville"
"100 MADISON LN, Charlottesville, VA",38.036242,-78.502401,1,range_interpolation,100,"Madison Ln",,,Charlottesville,VA,"Albemarle County",22903,US,"TIGER/Line® dataset from the US Census Bureau"
"1800 JEFFERSON PARK AVE, Charlottesville, VA",38.028293,-78.508006,1,rooftop,1800,"Jefferson Park Ave",,,Charlottesville,VA,"Albemarle County",22903,US,"City of Charlottesville"
"100 E SOUTH ST, Charlottesville, VA",38.029193,-78.482007,1,rooftop,100,"E South St",,,Charlottesville,VA,"Albemarle County",22901,US,"City of Charlottesville"
"1400 HAMPTON ST, Charlottesville, VA",38.019047,-78.469152,1,range_interpolation,1400,"Hampton St",,,Charlottesville,VA,"Albemarle County",22902,US,"TIGER/Line® dataset from the US Census Bureau"
"800 RIDGE ST, Charlottesville, VA",38.022211,-78.491258,1,rooftop,800,"Ridge St",,,Charlottesville,VA,"Albemarle County",22902,US,"City of Charlottesville"
"800 PROSPECT AVE, Charlottesville, VA",38.021516,-78.496843,1,range_interpolation,800,"Prospect Ave",,,Charlottesville,VA,"Albemarle County",22903,US,"TIGER/Line® dataset from the US Census Bureau"
"600 BOOKER ST, Charlottesville, VA",38.038019,-78.489672,1,range_interpolation,600,"Booker St",,,Charlottesville,VA,"Albemarle County",22903,US,"TIGER/Line® dataset from the US Census Bureau"
"1700 JEFFERSON PARK AVE, Charlottesville, VA",38.030234,-78.508221,1,rooftop,1700,"Jefferson Park Ave",,,Charlottesville,VA,"Albemarle County",22903,US,"City of Charlottesville"
"100 OAKHURST CIR, Charlottesville, VA",38.031904,-78.506849,1,rooftop,100,"Oakhurst Cir",,,Charlottesville,VA,"Albemarle County",22903,US,"Virginia Geographic Information Network (VGIN)"
"500 LOCUST AVE, Charlottesville, VA",38.031491,-78.471426,1,range_interpolation,500,"Locust Ave",,,Charlottesville,VA,"Albemarle County",22902,US,"TIGER/Line® dataset from the US Census Bureau"
"1200 WERTLAND ST, Charlottesville, VA",38.034171,-78.496505,1,rooftop,1200,"Wertland St",,,Charlottesville,VA,"Albemarle County",22903,US,"Virginia Geographic Information Network (VGIN)"
"400 FAIRWAY AVE, Charlottesville, VA",38.027873,-78.461791,1,rooftop,400,"Fairway Ave",,,Charlottesville,VA,"Albemarle County",22902,US,"City of Charlottesville"
"2000 JEFFERSON PARK AVE, Charlottesville, VA",38.026507,-78.512722,1,rooftop,2000,"Jefferson Park Ave",,,Charlottesville,VA,"Albemarle County",22903,US,"Virginia Geographic Information Network (VGIN)"
"2000 JEFFERSON PARK AVE, Charlottesville, VA",38.026507,-78.512722,1,rooftop,2000,"Jefferson Park Ave",,,Charlottesville,VA,"Albemarle County",22903,US,"Virginia Geographic Information Network (VGIN)"
"100 STADIUM RD, Charlottesville, VA",38.032061,-78.509002,1,rooftop,100,"Stadium Rd",,,Charlottesville,VA,"Albemarle County",22901,US,"City of Charlottesville"
"1900 JEFFERSON PARK AVE, Charlottesville, VA",38.027381,-78.511218,1,rooftop,1900,"Jefferson Park Ave",,,Charlottesville,VA,"Albemarle County",22901,US,"City of Charlottesville"
"1900 JEFFERSON PARK AVE, Charlottesville, VA",38.027381,-78.511218,1,rooftop,1900,"Jefferson Park Ave",,,Charlottesville,VA,"Albemarle County",22901,US,"City of Charlottesville"
"1900 JEFFERSON PARK AVE, Charlottesville, VA",38.027381,-78.511218,1,rooftop,1900,"Jefferson Park Ave",,,Charlottesville,VA,"Albemarle County",22901,US,"City of Charlottesville"
"1900 JEFFERSON PARK AVE, Charlottesville, VA",38.027381,-78.511218,1,rooftop,1900,"Jefferson Park Ave",,,Charlottesville,VA,"Albemarle County",22901,US,"City of Charlottesville"
"1900 JEFFERSON PARK AVE, Charlottesville, VA",38.027381,-78.511218,1,rooftop,1900,"Jefferson Park Ave",,,Charlottesville,VA,"Albemarle County",22901,US,"City of Charlottesville"
"1900 JEFFERSON PARK AVE, Charlottesville, VA",38.027381,-78.511218,1,rooftop,1900,"Jefferson Park Ave",,,Charlottesville,VA,"Albemarle County",22901,US,"City of Charlottesville"
"1900 JEFFERSON PARK AVE, Charlottesville, VA",38.027381,-78.511218,1,rooftop,1900,"Jefferson Park Ave",,,Charlottesville,VA,"Albemarle County",22901,US,"City of Charlottesville"
"1900 JEFFERSON PARK AVE, Charlottesville, VA",38.027381,-78.511218,1,rooftop,1900,"Jefferson Park Ave",,,Charlottesville,VA,"Albemarle County",22901,US,"City of Charlottesville"
"200 15TH ST NW, Charlottesville, VA",38.035162,-78.499549,1,rooftop,200,"15th St NW",,,Charlottesville,VA,"Albemarle County",22903,US,"Virginia Geographic Information Network (VGIN)"
"1400 HAZEL ST, Charlottesville, VA",38.033533,-78.4651,1,rooftop,1400,"Hazel St",,,Charlottesville,VA,"Albemarle County",22902,US,"City of Charlottesville"
"200 RUGBY RD, Charlottesville, VA",38.039647,-78.501654,1,range_interpolation,200,"Rugby Rd",,,Charlottesville,VA,"Albemarle County",22903,US,"TIGER/Line® dataset from the US Census Bureau"
"200 E MAIN ST, Charlottesville, VA",38.030391,-78.480746,1,range_interpolation,200,"E Main St",,,Charlottesville,VA,"Albemarle County",22902,US,"TIGER/Line® dataset from the US Census Bureau"
"900 EMMET ST N, Charlottesville, VA",38.048623,-78.503011,1,rooftop,900,"Emmet St N",,,Charlottesville,VA,"Albemarle County",22903,US,"City of Charlottesville"
"1400 UNIVERSITY AVE, Charlottesville, VA",38.033951,-78.49996,1,rooftop,1400,"University Ave",,,Charlottesville,VA,"Albemarle County",22903,US,Albemarle
"100 LEAKE LN, Charlottesville, VA",38.025014,-78.463696,1,range_interpolation,100,"Leake Ln",,,Charlottesville,VA,"Albemarle County",22902,US,"TIGER/Line® dataset from the US Census Bureau"
"800 HARDY DR, Charlottesville, VA",38.033559,-78.490241,1,range_interpolation,800,"Hardy Dr",,,Charlottesville,VA,"Albemarle County",22903,US,"TIGER/Line® dataset from the US Census Bureau"
"600 W MAIN ST, Charlottesville, VA",38.030966,-78.488496,1,rooftop,600,"W Main St",,,Charlottesville,VA,"Albemarle County",22903,US,"Virginia Geographic Information Network (VGIN)"
"1300 E HIGH ST, Charlottesville, VA",38.031707,-78.46553,1,range_interpolation,1300,"State Rte 20",,,Charlottesville,VA,"Albemarle County",22902,US,"TIGER/Line® dataset from the US Census Bureau"
"800 W MAIN ST, Charlottesville, VA",38.031848,-78.490814,1,range_interpolation,800,"W Main St",,,Charlottesville,VA,"Albemarle County",22903,US,"TIGER/Line® dataset from the US Census Bureau"
"100 WESTERLY AVE, Charlottesville, VA",38.026067,-78.522142,1,rooftop,100,"Westerly Ave",,,Charlottesville,VA,"Albemarle County",22902,US,"City of Charlottesville"
"100 DANBURY CT, Charlottesville, VA",38.018623,-78.471408,1,rooftop,100,"Danbury Ct",,,Charlottesville,VA,"Albemarle County",22902,US,"City of Charlottesville"
"100 250 BYPASS, Charlottesville, VA",38.026588,-78.48045,0.33,place,,,,,Charlottesville,VA,"Charlottesville city",22902,US,"TIGER/Line® dataset from the US Census Bureau"
"900 PRESTON AVE, Charlottesville, VA",38.037013,-78.489636,1,rooftop,900,"Preston Ave",,,Charlottesville,VA,"Albemarle County",22902,US,"City of Charlottesville"
"1800 EMMET ST N, Charlottesville, VA",38.059769,-78.493071,1,range_interpolation,1800,"Emmet St N",,,Charlottesville,VA,"Albemarle County",22903,US,"TIGER/Line® dataset from the US Census Bureau"
"500 15TH ST NW, Charlottesville, VA",38.039426,-78.497757,1,range_interpolation,500,"15th St NW",,,Charlottesville,VA,"Albemarle County",22903,US,"TIGER/Line® dataset from the US Census Bureau"
"600 ELLIOTT AVE, Charlottesville, VA",38.021759,-78.482908,1,rooftop,600,"Elliott Ave",,,Charlottesville,VA,"Albemarle County",22902,US,"City of Charlottesville"
"100 E MAIN ST, Charlottesville, VA",38.030363,-78.481565,1,rooftop,100,"E Main St",,,Charlottesville,VA,"Albemarle County",22901,US,"City of Charlottesville"
"1000 PRESTON AVE, Charlottesville, VA",38.039186,-78.491586,1,rooftop,1000,"Preston Ave",,,Charlottesville,VA,"Albemarle County",22901,US,"City of Charlottesville"
"700 PALATINE AVE, Charlottesville, VA",38.017253,-78.484223,1,range_interpolation,700,"Palatine Ave",,,Charlottesville,VA,"Albemarle County",22902,US,"TIGER/Line® dataset from the US Census Bureau"
"2200 FONTAINE AVE, Charlottesville, VA",38.026076,-78.515987,1,range_interpolation,2200,"Fontaine Ave",,,Charlottesville,VA,"Albemarle County",22903,US,"TIGER/Line® dataset from the US Census Bureau"
"1500 DAIRY RD, Charlottesville, VA",38.052849,-78.48642,1,range_interpolation,1500,"Dairy Rd",,,Charlottesville,VA,"Albemarle County",22903,US,"TIGER/Line® dataset from the US Census Bureau"
"600 MERIDIAN ST, Charlottesville, VA",38.023802,-78.475394,1,range_interpolation,600,"Meridian St",,,Charlottesville,VA,"Albemarle County",22902,US,"TIGER/Line® dataset from the US Census Bureau"
"1500 CHERRY AVE, Charlottesville, VA",38.024109,-78.503133,1,range_interpolation,1500,"Cherry Ave",,,Charlottesville,VA,"Albemarle County",22903,US,"TIGER/Line® dataset from the US Census Bureau"
"1400 MELBOURNE RD, Charlottesville, VA",38.052489,-78.475702,1,rooftop,1400,"Melbourne Rd",,,Charlottesville,VA,"Albemarle County",22902,US,"City of Charlottesville"
"1300 E MARKET ST, Charlottesville, VA",38.026214,-78.467407,1,range_interpolation,1300,"Market St E",,,Charlottesville,VA,"Albemarle County",22902,US,"TIGER/Line® dataset from the US Census Bureau"
"400 E HIGH ST, Charlottesville, VA",38.032137,-78.478169,1,range_interpolation,400,"State Rte 631",,,Charlottesville,VA,"Albemarle County",22902,US,"TIGER/Line® dataset from the US Census Bureau"
"1900 JEFFERSON PARK AVE, Charlottesville, VA",38.027381,-78.511218,1,rooftop,1900,"Jefferson Park Ave",,,Charlottesville,VA,"Albemarle County",22901,US,"City of Charlottesville"
"800 W MAIN ST, Charlottesville, VA",38.031848,-78.490814,1,range_interpolation,800,"W Main St",,,Charlottesville,VA,"Albemarle County",22903,US,"TIGER/Line® dataset from the US Census Bureau"
"1200 GORDON AVE, Charlottesville, VA",38.038446,-78.4951,1,rooftop,1200,"Gordon Ave",,,Charlottesville,VA,"Albemarle County",22903,US,"City of Charlottesville"
"200 GORDON AVE, Charlottesville, VA",38.142039,-78.190581,0.8,rooftop,200,"W Gordon Ave",,,Gordonsville,VA,"Orange County",22942,US,Orange
"600 E MARKET ST, Charlottesville, VA",38.030267,-78.477549,1,range_interpolation,600,"Market St E",,,Charlottesville,VA,"Albemarle County",22902,US,"TIGER/Line® dataset from the US Census Bureau"
"1400 MELBOURNE RD, Charlottesville, VA",38.052489,-78.475702,1,rooftop,1400,"Melbourne Rd",,,Charlottesville,VA,"Albemarle County",22902,US,"City of Charlottesville"
"2100 IVY RD, Charlottesville, VA",38.042471,-78.511905,1,rooftop,2100,"Ivy Rd",,,Charlottesville,VA,"Albemarle County",22902,US,"City of Charlottesville"
"200 W MAIN ST, Charlottesville, VA",38.030748,-78.482695,1,rooftop,200,"W Main St",,,Charlottesville,VA,"Albemarle County",22901,US,"City of Charlottesville"
"1500 OXFORD RD, Charlottesville, VA",38.046861,-78.483662,1,rooftop,1500,"Oxford Rd",,,Charlottesville,VA,"Albemarle County",22903,US,"City of Charlottesville"
"900 1ST ST S, Charlottesville, VA",38.022908,-78.485672,1,rooftop,900,"1st St S",,,Charlottesville,VA,"Albemarle County",22902,US,"Virginia Geographic Information Network (VGIN)"
"800 HARDY DR, Charlottesville, VA",38.033559,-78.490241,1,range_interpolation,800,"Hardy Dr",,,Charlottesville,VA,"Albemarle County",22903,US,"TIGER/Line® dataset from the US Census Bureau"
"1100 WERTLAND ST, Charlottesville, VA",38.034035,-78.495713,1,rooftop,1100,"Wertland St",,,Charlottesville,VA,"Albemarle County",22903,US,"City of Charlottesville"
"900 CHARLTON AVE, Charlottesville, VA",38.038438,-78.487242,1,range_interpolation,900,"Charlton Ave",,,Charlottesville,VA,"Albemarle County",22903,US,"TIGER/Line® dataset from the US Census Bureau"
"200 E WATER ST, Charlottesville, VA",38.02935,-78.480554,1,rooftop,200,"E Water St",,,Charlottesville,VA,"Albemarle County",22901,US,"City of Charlottesville"
"1600 MONTICELLO AVE, Charlottesville, VA",38.016021,-78.47595,1,rooftop,1600,"Monticello Ave",,,Charlottesville,VA,"Albemarle County",22902,US,"City of Charlottesville"
"100 ROOSEVELT BROWN BLVD, Charlottesville, VA",38.026588,-78.48045,0.33,place,,,,,Charlottesville,VA,"Charlottesville city",22902,US,"TIGER/Line® dataset from the US Census Bureau"
"400 MOSELEY DR, Charlottesville, VA",38.017994,-78.509851,1,range_interpolation,400,"Moseley Dr",,,Charlottesville,VA,"Albemarle County",22903,US,"TIGER/Line® dataset from the US Census Bureau"
"500 8TH ST NE, Charlottesville, VA",38.032252,-78.474832,1,range_interpolation,500,"8th St NE",,,Charlottesville,VA,"Albemarle County",22902,US,"TIGER/Line® dataset from the US Census Bureau"
"200 RIDGE ST, Charlottesville, VA",38.029765,-78.485528,1,range_interpolation,200,"State Rte 631",,,Charlottesville,VA,"Albemarle County",22902,US,"TIGER/Line® dataset from the US Census Bureau"
"100 4TH ST NW, Charlottesville, VA",38.030473,-78.486581,1,range_interpolation,100,"4th St NW",,,Charlottesville,VA,"Albemarle County",22903,US,"TIGER/Line® dataset from the US Census Bureau"
"1100 MILLMONT ST, Charlottesville, VA",38.052642,-78.502484,1,range_interpolation,1100,"Millmont St",,,Charlottesville,VA,"Albemarle County",22903,US,"TIGER/Line® dataset from the US Census Bureau"
"1500 E MARKET ST, Charlottesville, VA",38.024258,-78.462854,1,range_interpolation,1500,"Market St E",,,Charlottesville,VA,"Albemarle County",22902,US,"TIGER/Line® dataset from the US Census Bureau"
"100 LANKFORD AVE, Charlottesville, VA",38.021191,-78.487098,1,rooftop,100,"Lankford Ave",,,Charlottesville,VA,"Albemarle County",22902,US,"City of Charlottesville"
"500 1ST ST S, Charlottesville, VA",38.026837,-78.483051,1,rooftop,500,"1st St S",,,Charlottesville,VA,"Albemarle County",22902,US,"City of Charlottesville"
"1500 DAIRY RD, Charlottesville, VA",38.052849,-78.48642,1,range_interpolation,1500,"Dairy Rd",,,Charlottesville,VA,"Albemarle County",22903,US,"TIGER/Line® dataset from the US Census Bureau"
"800 E JEFFERSON ST, Charlottesville, VA",38.03079,-78.475436,1,rooftop,800,"E Jefferson St",,,Charlottesville,VA,"Albemarle County",22902,US,"City of Charlottesville"
"600 E MARKET ST, Charlottesville, VA",38.030267,-78.477549,1,range_interpolation,600,"Market St E",,,Charlottesville,VA,"Albemarle County",22902,US,"TIGER/Line® dataset from the US Census Bureau"
"1900 EMMET ST N, Charlottesville, VA",38.060855,-78.492224,1,range_interpolation,1900,"Emmet St N",,,Charlottesville,VA,"Albemarle County",22903,US,"TIGER/Line® dataset from the US Census Bureau"
"800 CASTALIA ST, Charlottesville, VA",38.021205,-78.474836,1,rooftop,800,"Castalia St",,,Charlottesville,VA,"Albemarle County",22902,US,"City of Charlottesville"
"1100 EMMET ST N, Charlottesville, VA",38.051498,-78.5002,1,range_interpolation,1100,"Emmet St N",,,Charlottesville,VA,"Albemarle County",22903,US,"TIGER/Line® dataset from the US Census Bureau"
"1300 CARLTON AVE, Charlottesville, VA",38.022084,-78.469217,1,rooftop,1300,"Carlton Ave",,,Charlottesville,VA,"Albemarle County",22902,US,"City of Charlottesville"
"2200 GREENBRIER DR, Charlottesville, VA",38.062023,-78.469685,1,rooftop,2200,"Greenbrier Dr",,,Charlottesville,VA,"Albemarle County",22901,US,"City of Charlottesville"
"800 E MARKET ST, Charlottesville, VA",38.02958,-78.476031,1,rooftop,800,"E Market St",,,Charlottesville,VA,"Albemarle County",22902,US,"Virginia Geographic Information Network (VGIN)"
"100 7TH ST NE, Charlottesville, VA",38.029267,-78.476974,1,range_interpolation,100,"7th St NE",,,Charlottesville,VA,"Albemarle County",22902,US,"TIGER/Line® dataset from the US Census Bureau"
"1400 BURGESS LN, Charlottesville, VA",38.023265,-78.465232,1,range_interpolation,1400,"Burgess Ln",,,Charlottesville,VA,"Albemarle County",22902,US,"TIGER/Line® dataset from the US Census Bureau"
"1100 5TH ST SW, Charlottesville, VA",38.014495,-78.50005,1,range_interpolation,1100,"5th St SW",,,Charlottesville,VA,"Albemarle County",22902,US,"TIGER/Line® dataset from the US Census Bureau"
"800 VALLEY VIEW CIR, Charlottesville, VA",38.03392,-78.46564,1,range_interpolation,800,"Valley View Cir",,,Charlottesville,VA,"Albemarle County",22902,US,"TIGER/Line® dataset from the US Census Bureau"
"300 W MAIN ST, Charlottesville, VA",38.030167,-78.485534,1,rooftop,300,"W Main St",,,Charlottesville,VA,"Albemarle County",22902,US,"City of Charlottesville"
"700 STONEHENGE AVE, Charlottesville, VA",38.018501,-78.482394,1,range_interpolation,700,"Stonehenge Ave",,,Charlottesville,VA,"Albemarle County",22902,US,"TIGER/Line® dataset from the US Census Bureau"
"300 15TH ST NW, Charlottesville, VA",38.036158,-78.499392,1,range_interpolation,300,"15th St NW",,,Charlottesville,VA,"Albemarle County",22903,US,"TIGER/Line® dataset from the US Census Bureau"
"200 W MAIN ST, Charlottesville, VA",38.030748,-78.482695,1,rooftop,200,"W Main St",,,Charlottesville,VA,"Albemarle County",22901,US,"City of Charlottesville"
"200 STADIUM RD, Charlottesville, VA",38.026588,-78.48045,0.33,place,,,,,Charlottesville,VA,"Charlottesville city",22902,US,"TIGER/Line® dataset from the US Census Bureau"
"800 W MAIN ST, Charlottesville, VA",38.031848,-78.490814,1,range_interpolation,800,"W Main St",,,Charlottesville,VA,"Albemarle County",22903,US,"TIGER/Line® dataset from the US Census Bureau"
"1200 LILI LN, Charlottesville, VA",38.048321,-78.463065,1,range_interpolation,1200,"Lili Ln",,,Charlottesville,VA,"Albemarle County",22901,US,"TIGER/Line® dataset from the US Census Bureau"
"1500 DAIRY RD, Charlottesville, VA",38.052849,-78.48642,1,range_interpolation,1500,"Dairy Rd",,,Charlottesville,VA,"Albemarle County",22903,US,"TIGER/Line® dataset from the US Census Bureau"
"4000 CITY WALK WAY, Charlottesville, VA",38.026588,-78.48045,0.33,place,,,,,Charlottesville,VA,"Charlottesville city",22902,US,"TIGER/Line® dataset from the US Census Bureau"
"100 W MARKET ST, Charlottesville, VA",38.031682,-78.481145,0.8,range_interpolation,100,"Market St",,,Charlottesville,VA,"Albemarle County",22902,US,"TIGER/Line® dataset from the US Census Bureau"
"500 CAROLINE AVE, Charlottesville, VA",38.029594,-78.463905,1,range_interpolation,500,"Caroline Ave",,,Charlottesville,VA,"Albemarle County",22902,US,"TIGER/Line® dataset from the US Census Bureau"
"900 GRADY AVE, Charlottesville, VA",38.038132,-78.490071,1,range_interpolation,900,"Grady Ave",,,Charlottesville,VA,"Albemarle County",22903,US,"TIGER/Line® dataset from the US Census Bureau"
"1400 VIRGINIA AVE, Charlottesville, VA",38.037955,-78.497624,1,range_interpolation,1400,"Virginia Ave",,,Charlottesville,VA,"Albemarle County",22903,US,"TIGER/Line® dataset from the US Census Bureau"
"1400 MELBOURNE RD, Charlottesville, VA",38.052489,-78.475702,1,rooftop,1400,"Melbourne Rd",,,Charlottesville,VA,"Albemarle County",22902,US,"City of Charlottesville"
"400 13TH ST NW, Charlottesville, VA",38.036718,-78.496805,1,range_interpolation,400,"13th St NW",,,Charlottesville,VA,"Albemarle County",22903,US,"TIGER/Line® dataset from the US Census Bureau"
"1600 MERIDIAN ST, Charlottesville, VA",38.015145,-78.481442,1,range_interpolation,1600,"Meridian St",,,Charlottesville,VA,"Albemarle County",22902,US,"TIGER/Line® dataset from the US Census Bureau"
"1200 AVON ST, Charlottesville, VA",38.020631,-78.481962,1,range_interpolation,1200,"Avon St",,,Charlottesville,VA,"Albemarle County",22902,US,"TIGER/Line® dataset from the US Census Bureau"
"1500 GREEN ST, Charlottesville, VA",38.016703,-78.480816,1,rooftop,1500,"Green St",,,Charlottesville,VA,"Albemarle County",22902,US,"City of Charlottesville"
"700 MADISON AVE, Charlottesville, VA",38.041161,-78.495152,1,range_interpolation,700,"Madison Ave",,,Charlottesville,VA,"Albemarle County",22903,US,"TIGER/Line® dataset from the US Census Bureau"
"1100 PRESTON AVE, Charlottesville, VA",38.042033,-78.491926,1,rooftop,1100,"Preston Ave",,,Charlottesville,VA,"Albemarle County",22903,US,"City of Charlottesville"
"1800 MONTICELLO RD, Charlottesville, VA",38.015537,-78.472869,1,rooftop,1800,"Monticello Rd",,,Charlottesville,VA,"Albemarle County",22903,US,"City of Charlottesville"
"600 E MARKET ST, Charlottesville, VA",38.030267,-78.477549,1,range_interpolation,600,"Market St E",,,Charlottesville,VA,"Albemarle County",22902,US,"TIGER/Line® dataset from the US Census Bureau"
"1400 MOORES ST, Charlottesville, VA",38.032759,-78.46571,0.9,range_interpolation,1400,"Moore St",,,Charlottesville,VA,"Albemarle County",22902,US,"TIGER/Line® dataset from the US Census Bureau"
"800 CHERRY AVE, Charlottesville, VA",38.028394,-78.4925,1,range_interpolation,800,"Cherry Ave",,,Charlottesville,VA,"Albemarle County",22903,US,"TIGER/Line® dataset from the US Census Bureau"
"100 13TH ST NW, Charlottesville, VA",38.033219,-78.498297,1,range_interpolation,100,"13th St NW",,,Charlottesville,VA,"Albemarle County",22903,US,"TIGER/Line® dataset from the US Census Bureau"
"1600 MERIDIAN ST, Charlottesville, VA",38.015145,-78.481442,1,range_interpolation,1600,"Meridian St",,,Charlottesville,VA,"Albemarle County",22902,US,"TIGER/Line® dataset from the US Census Bureau"
"700 5TH ST SW, Charlottesville, VA",38.02517,-78.490183,1,range_interpolation,700,"State Rte 631",,,Charlottesville,VA,"Albemarle County",22902,US,"TIGER/Line® dataset from the US Census Bureau"
"300 11TH ST NW, Charlottesville, VA",38.035696,-78.494993,1,range_interpolation,300,"11th St NW",,,Charlottesville,VA,"Albemarle County",22903,US,"TIGER/Line® dataset from the US Census Bureau"
"1500 EARLY ST, Charlottesville, VA",38.018243,-78.483984,1,rooftop,1500,"Early St",,,Charlottesville,VA,"Albemarle County",22902,US,"City of Charlottesville"
"400 GARRETT ST, Charlottesville, VA",38.027754,-78.481638,1,rooftop,400,"Garrett St",,,Charlottesville,VA,"Albemarle County",22902,US,"Virginia Geographic Information Network (VGIN)"
"800 HARDY DR, Charlottesville, VA",38.033559,-78.490241,1,range_interpolation,800,"Hardy Dr",,,Charlottesville,VA,"Albemarle County",22903,US,"TIGER/Line® dataset from the US Census Bureau"
"300 UNIVERSITY CIR, Charlottesville, VA",38.043331,-78.503477,1,range_interpolation,300,"University Cir",,,Charlottesville,VA,"Albemarle County",22903,US,"TIGER/Line® dataset from the US Census Bureau"
"400 14TH ST NW, Charlottesville, VA",38.037655,-78.497624,1,range_interpolation,400,"14th St NW",,,Charlottesville,VA,"Albemarle County",22903,US,"TIGER/Line® dataset from the US Census Bureau"
"600 E MARKET ST, Charlottesville, VA",38.030267,-78.477549,1,range_interpolation,600,"Market St E",,,Charlottesville,VA,"Albemarle County",22902,US,"TIGER/Line® dataset from the US Census Bureau"
"800 E MARKET ST, Charlottesville, VA",38.02958,-78.476031,1,rooftop,800,"E Market St",,,Charlottesville,VA,"Albemarle County",22902,US,"Virginia Geographic Information Network (VGIN)"
"700 E WATER ST, Charlottesville, VA",38.02858,-78.473781,1,range_interpolation,700,"Water St E",,,Charlottesville,VA,"Albemarle County",22902,US,"TIGER/Line® dataset from the US Census Bureau"
"800 HARDY DR, Charlottesville, VA",38.033559,-78.490241,1,range_interpolation,800,"Hardy Dr",,,Charlottesville,VA,"Albemarle County",22903,US,"TIGER/Line® dataset from the US Census Bureau"
"1400 HAMPTON ST, Charlottesville, VA",38.019047,-78.469152,1,range_interpolation,1400,"Hampton St",,,Charlottesville,VA,"Albemarle County",22902,US,"TIGER/Line® dataset from the US Census Bureau"
"2100 MICHIE DR, Charlottesville, VA",38.065057,-78.48225,1,rooftop,2100,"Michie Dr",,,Charlottesville,VA,"Albemarle County",22901,US,"City of Charlottesville"
"1100 EMMET ST N, Charlottesville, VA",38.051498,-78.5002,1,range_interpolation,1100,"Emmet St N",,,Charlottesville,VA,"Albemarle County",22903,US,"TIGER/Line® dataset from the US Census Bureau"
"600 E MARKET ST, Charlottesville, VA",38.030267,-78.477549,1,range_interpolation,600,"Market St E",,,Charlottesville,VA,"Albemarle County",22902,US,"TIGER/Line® dataset from the US Census Bureau"
"300 MEADE AVE, Charlottesville, VA",38.027733,-78.465583,1,rooftop,300,"Meade Ave",,,Charlottesville,VA,"Albemarle County",22902,US,"City of Charlottesville"
"100 SEMINOLE CT, Charlottesville, VA",38.065629,-78.488112,1,range_interpolation,100,"Seminole Ct",,,Charlottesville,VA,"Albemarle County",22901,US,"TIGER/Line® dataset from the US Census Bureau"
"1400 MELBOURNE RD, Charlottesville, VA",38.052489,-78.475702,1,rooftop,1400,"Melbourne Rd",,,Charlottesville,VA,"Albemarle County",22902,US,"City of Charlottesville"
"700 PRESTON AVE, Charlottesville, VA",38.03578,-78.486696,1,range_interpolation,700,"Preston Ave",,,Charlottesville,VA,"Albemarle County",22903,US,"TIGER/Line® dataset from the US Census Bureau"
"100 BROOKWOOD DR, Charlottesville, VA",38.01789,-78.495359,1,range_interpolation,100,"Brookwood Dr",,,Charlottesville,VA,"Albemarle County",22902,US,"TIGER/Line® dataset from the US Census Bureau"
"700 PRESTON AVE, Charlottesville, VA",38.03578,-78.486696,1,range_interpolation,700,"Preston Ave",,,Charlottesville,VA,"Albemarle County",22903,US,"TIGER/Line® dataset from the US Census Bureau"
"1100 5TH ST SW, Charlottesville, VA",38.014495,-78.50005,1,range_interpolation,1100,"5th St SW",,,Charlottesville,VA,"Albemarle County",22902,US,"TIGER/Line® dataset from the US Census Bureau"
"400 E MAIN ST, Charlottesville, VA",38.029803,-78.479272,1,rooftop,400,"E Main St",,,Charlottesville,VA,"Albemarle County",22902,US,"City of Charlottesville"
"400 14TH ST NW, Charlottesville, VA",38.037655,-78.497624,1,range_interpolation,400,"14th St NW",,,Charlottesville,VA,"Albemarle County",22903,US,"TIGER/Line® dataset from the US Census Bureau"
"100 AVON ST, Charlottesville, VA",38.027853,-78.475188,1,rooftop,100,"Avon St",,,Charlottesville,VA,"Albemarle County",22902,US,"City of Charlottesville"
"1100 FOREST ST, Charlottesville, VA",38.039571,-78.484022,0.9,range_interpolation,1100,"Forrest St",,,Charlottesville,VA,"Albemarle County",22903,US,"TIGER/Line® dataset from the US Census Bureau"
"1300 W MAIN ST, Charlottesville, VA",38.033404,-78.49779,1,range_interpolation,1300,"Main St W",,,Charlottesville,VA,"Albemarle County",22903,US,"TIGER/Line® dataset from the US Census Bureau"
"2500 JEFFERSON PARK AVE, Charlottesville, VA",38.020243,-78.514161,1,rooftop,2500,"Jefferson Park Ave",,,Charlottesville,VA,"Albemarle County",22903,US,"City of Charlottesville"
"1000 BELMONT AVE, Charlottesville, VA",38.022736,-78.473958,1,rooftop,1000,"Belmont Ave",,,Charlottesville,VA,"Albemarle County",22902,US,"City of Charlottesville"
"900 1ST ST S, Charlottesville, VA",38.022908,-78.485672,1,rooftop,900,"1st St S",,,Charlottesville,VA,"Albemarle County",22902,US,"Virginia Geographic Information Network (VGIN)"
"200 BURNET ST, Charlottesville, VA",38.025079,-78.487264,1,rooftop,200,"Burnet St",,,Charlottesville,VA,"Albemarle County",22902,US,"City of Charlottesville"
"300 W MAIN ST, Charlottesville, VA",38.030167,-78.485534,1,rooftop,300,"W Main St",,,Charlottesville,VA,"Albemarle County",22902,US,"City of Charlottesville"
"200 250 BYPASS, Charlottesville, VA",38.026588,-78.48045,0.33,place,,,,,Charlottesville,VA,"Charlottesville city",22902,US,"TIGER/Line® dataset from the US Census Bureau"
"500 HARRIS RD, Charlottesville, VA",38.014946,-78.503703,1,range_interpolation,500,"Harris Rd",,,Charlottesville,VA,"Albemarle County",22903,US,"TIGER/Line® dataset from the US Census Bureau"
"1900 JEFFERSON PARK AVE, Charlottesville, VA",38.027381,-78.511218,1,rooftop,1900,"Jefferson Park Ave",,,Charlottesville,VA,"Albemarle County",22901,US,"City of Charlottesville"
"1400 E HIGH ST, Charlottesville, VA",38.03229,-78.463473,1,range_interpolation,1400,"High St E",,,Charlottesville,VA,"Albemarle County",22902,US,"TIGER/Line® dataset from the US Census Bureau"
"300 E MAIN ST, Charlottesville, VA",38.029931,-78.48003,1,rooftop,300,"E Main St",,,Charlottesville,VA,"Albemarle County",22902,US,"Virginia Geographic Information Network (VGIN)"
"900 EMMET ST, Charlottesville, VA",38.048623,-78.503011,0.9,rooftop,900,"Emmet St N",,,Charlottesville,VA,"Albemarle County",22903,US,"City of Charlottesville"
"900 KEITH RD, Charlottesville, VA",38.026588,-78.48045,0.33,place,,,,,Charlottesville,VA,"Charlottesville city",22902,US,"TIGER/Line® dataset from the US Census Bureau"
"600 MASON LN, Charlottesville, VA",38.019716,-78.465579,0.6,rooftop,600,"Mason St",,,Charlottesville,VA,"Albemarle County",22902,US,"City of Charlottesville"
"400 13TH ST NE, Charlottesville, VA",38.02923,-78.466351,1,rooftop,400,"13th St NE",,,Charlottesville,VA,"Albemarle County",22902,US,"City of Charlottesville"
"1600 EMMET ST N, Charlottesville, VA",38.057817,-78.493732,1,rooftop,1600,"Emmet St N",,,Charlottesville,VA,"Albemarle County",22901,US,"City of Charlottesville"
"1500 UNIVERSITY AVE, Charlottesville, VA",38.034988,-78.500296,0.72,nearest_rooftop_match,1501,"University Ave",,,Charlottesville,VA,"Albemarle County",22903,US,"Virginia Geographic Information Network (VGIN)"
"2200 NORTH BERKSHIRE RD, Charlottesville, VA",38.063304,-78.497708,1,range_interpolation,2200,"N Berkshire Rd",,,Charlottesville,VA,"Albemarle County",22901,US,"TIGER/Line® dataset from the US Census Bureau"
"100 8TH ST NW, Charlottesville, VA",38.031548,-78.490814,1,range_interpolation,100,"8th St NW",,,Charlottesville,VA,"Albemarle County",22903,US,"TIGER/Line® dataset from the US Census Bureau"
"1100 PRESTON AVE, Charlottesville, VA",38.042033,-78.491926,1,rooftop,1100,"Preston Ave",,,Charlottesville,VA,"Albemarle County",22903,US,"City of Charlottesville"
"100 EMMET ST N, Charlottesville, VA",38.039966,-78.506381,1,rooftop,100,"Emmet St N",,,Charlottesville,VA,"Albemarle County",22901,US,"City of Charlottesville"
"200 DICE ST, Charlottesville, VA",38.027886,-78.485134,1,range_interpolation,200,"Dice St",,,Charlottesville,VA,"Albemarle County",22902,US,"TIGER/Line® dataset from the US Census Bureau"
"800 ALBEMARLE ST, Charlottesville, VA",38.036858,-78.485249,1,range_interpolation,800,"Albemarle St",,,Charlottesville,VA,"Albemarle County",22903,US,"TIGER/Line® dataset from the US Census Bureau"
"300 15TH ST NW, Charlottesville, VA",38.036158,-78.499392,1,range_interpolation,300,"15th St NW",,,Charlottesville,VA,"Albemarle County",22903,US,"TIGER/Line® dataset from the US Census Bureau"
"1100 EMMET ST N, Charlottesville, VA",38.051498,-78.5002,1,range_interpolation,1100,"Emmet St N",,,Charlottesville,VA,"Albemarle County",22903,US,"TIGER/Line® dataset from the US Census Bureau"
"1600 UNIVERSITY AVE, Charlottesville, VA",38.034497,-78.500062,0.9,range_interpolation,1600,"University Ave",,,Charlottesville,VA,"Albemarle County",22903,US,"TIGER/Line® dataset from the US Census Bureau"
"100 RIDGE ST, Charlottesville, VA",38.029753,-78.484568,1,rooftop,100,"Ridge St",,,Charlottesville,VA,"Albemarle County",22901,US,"City of Charlottesville"
"700 WEST ST, Charlottesville, VA",38.034665,-78.48799,1,rooftop,700,"West St",,,Charlottesville,VA,"Albemarle County",22902,US,"City of Charlottesville"
"100 CULBRETH RD, Charlottesville, VA",38.040039,-78.504129,1,range_interpolation,100,"Culbreth Rd",,,Charlottesville,VA,"Albemarle County",22903,US,"TIGER/Line® dataset from the US Census Bureau"
"1100 5TH ST, Charlottesville, VA",38.014495,-78.50005,1,range_interpolation,1100,"State Rte 631",,,Charlottesville,VA,"Albemarle County",22902,US,"TIGER/Line® dataset from the US Census Bureau"
"1200 EMMET ST N, Charlottesville, VA",38.052819,-78.498406,1,rooftop,1200,"Emmet St N",,,Charlottesville,VA,"Albemarle County",22903,US,"City of Charlottesville"
"100 2ND ST SW, Charlottesville, VA",38.031193,-78.482244,1,range_interpolation,100,"2nd St SW",,,Charlottesville,VA,"Albemarle County",22902,US,"TIGER/Line® dataset from the US Census Bureau"
"100 GARRETT ST, Charlottesville, VA",38.029242,-78.484014,1,range_interpolation,100,"Garrett St",,,Charlottesville,VA,"Albemarle County",22902,US,"TIGER/Line® dataset from the US Census Bureau"
"100 GARRETT ST, Charlottesville, VA",38.029242,-78.484014,1,range_interpolation,100,"Garrett St",,,Charlottesville,VA,"Albemarle County",22902,US,"TIGER/Line® dataset from the US Census Bureau"
"100 GARRETT ST, Charlottesville, VA",38.029242,-78.484014,1,range_interpolation,100,"Garrett St",,,Charlottesville,VA,"Albemarle County",22902,US,"TIGER/Line® dataset from the US Census Bureau"
"100 GARRETT ST, Charlottesville, VA",38.029242,-78.484014,1,range_interpolation,100,"Garrett St",,,Charlottesville,VA,"Albemarle County",22902,US,"TIGER/Line® dataset from the US Census Bureau"
"1000 CITY WALK WAY, Charlottesville, VA",38.025245,-78.468826,1,rooftop,1000,"City Walk Way",,,Charlottesville,VA,"Albemarle County",22902,US,"Virginia Geographic Information Network (VGIN)"
"1400 MELBOURNE RD, Charlottesville, VA",38.052489,-78.475702,1,rooftop,1400,"Melbourne Rd",,,Charlottesville,VA,"Albemarle County",22902,US,"City of Charlottesville"
"700 W WATER ST, Charlottesville, VA",38.02858,-78.473781,0.8,range_interpolation,700,"Water St E",,,Charlottesville,VA,"Albemarle County",22902,US,"TIGER/Line® dataset from the US Census Bureau"
"800 BOLLING AVE, Charlottesville, VA",38.022563,-78.478076,1,rooftop,800,"Bolling Ave",,,Charlottesville,VA,"Albemarle County",22902,US,"City of Charlottesville"
"500 PARK ST, Charlottesville, VA",38.03394,-78.475337,1,rooftop,500,"Park St",,,Charlottesville,VA,"Albemarle County",22902,US,"City of Charlottesville"
"1500 ROSA TER, Charlottesville, VA",38.019814,-78.486029,1,range_interpolation,1500,"Rosa Ter",,,Charlottesville,VA,"Albemarle County",22902,US,"TIGER/Line® dataset from the US Census Bureau"
"100 OLINDA DR, Charlottesville, VA",38.023796,-78.49979,1,rooftop,100,"Olinda Dr",,,Charlottesville,VA,"Albemarle County",22901,US,"City of Charlottesville"
"1200 HARRIS ST, Charlottesville, VA",38.040323,-78.477686,1,range_interpolation,1200,"Harris St",,,Charlottesville,VA,"Albemarle County",22903,US,"TIGER/Line® dataset from the US Census Bureau"
"900 MONTICELLO AVE, Charlottesville, VA",38.02264,-78.475923,1,rooftop,900,"Monticello Ave",,,Charlottesville,VA,"Albemarle County",22901,US,"City of Charlottesville"
"100 MADISON LN, Charlottesville, VA",38.036242,-78.502401,1,range_interpolation,100,"Madison Ln",,,Charlottesville,VA,"Albemarle County",22903,US,"TIGER/Line® dataset from the US Census Bureau"
"100 LANKFORD AVE, Charlottesville, VA",38.021191,-78.487098,1,rooftop,100,"Lankford Ave",,,Charlottesville,VA,"Albemarle County",22902,US,"City of Charlottesville"
"2500 WILLARD DR, Charlottesville, VA",38.019381,-78.510104,1,rooftop,2500,"Willard Dr",,,Charlottesville,VA,"Albemarle County",22903,US,"City of Charlottesville"
"100 14TH ST NW, Charlottesville, VA",38.034122,-78.499326,1,rooftop,100,"14th St NW",,,Charlottesville,VA,"Albemarle County",22903,US,"Virginia Geographic Information Network (VGIN)"
"1500 UNIVERSITY AVE, Charlottesville, VA",38.034988,-78.500296,0.72,nearest_rooftop_match,1501,"University Ave",,,Charlottesville,VA,"Albemarle County",22903,US,"Virginia Geographic Information Network (VGIN)"
"1400 UNIVERSITY AVE, Charlottesville, VA",38.033951,-78.49996,1,rooftop,1400,"University Ave",,,Charlottesville,VA,"Albemarle County",22903,US,Albemarle
"900 EMMET ST N, Charlottesville, VA",38.048623,-78.503011,1,rooftop,900,"Emmet St N",,,Charlottesville,VA,"Albemarle County",22903,US,"City of Charlottesville"
"1100 5TH ST SW, Charlottesville, VA",38.014495,-78.50005,1,range_interpolation,1100,"5th St SW",,,Charlottesville,VA,"Albemarle County",22902,US,"TIGER/Line® dataset from the US Census Bureau"
"1500 E HIGH ST, Charlottesville, VA",38.03264,-78.462739,1,range_interpolation,1500,"High St E",,,Charlottesville,VA,"Albemarle County",22902,US,"TIGER/Line® dataset from the US Census Bureau"
"300 E MAIN ST, Charlottesville, VA",38.029931,-78.48003,1,rooftop,300,"E Main St",,,Charlottesville,VA,"Albemarle County",22902,US,"Virginia Geographic Information Network (VGIN)"
"100 BARNETT ST, Charlottesville, VA",38.02393,-78.487254,1,rooftop,100,"Burnet St",,,Charlottesville,VA,"Albemarle County",22902,US,"City of Charlottesville"
"700 ORANGEDALE AVE, Charlottesville, VA",38.024675,-78.495376,1,rooftop,700,"Orangedale Ave",,,Charlottesville,VA,"Albemarle County",22903,US,"City of Charlottesville"
"100 EMMET ST N, Charlottesville, VA",38.039966,-78.506381,1,rooftop,100,"Emmet St N",,,Charlottesville,VA,"Albemarle County",22901,US,"City of Charlottesville"
"100 CHANCELLOR ST, Charlottesville, VA",38.035846,-78.50148,1,range_interpolation,100,"Chancellor St",,,Charlottesville,VA,"Albemarle County",22903,US,"TIGER/Line® dataset from the US Census Bureau"
"1600 DUBLIN RD, Charlottesville, VA",38.019996,-78.502708,1,range_interpolation,1600,"Dublin Rd",,,Charlottesville,VA,"Albemarle County",22903,US,"TIGER/Line® dataset from the US Census Bureau"
"1500 CARLTON AVE, Charlottesville, VA",38.020895,-78.464037,1,rooftop,1500,"Carlton Ave",,,Charlottesville,VA,"Albemarle County",22902,US,"City of Charlottesville"
"1000 BLENHEIM AVE, Charlottesville, VA",38.020322,-78.47548,1,rooftop,1000,"Blenheim Ave",,,Charlottesville,VA,"Albemarle County",22902,US,"City of Charlottesville"
"600 E MARKET ST, Charlottesville, VA",38.030267,-78.477549,1,range_interpolation,600,"Market St E",,,Charlottesville,VA,"Albemarle County",22902,US,"TIGER/Line® dataset from the US Census Bureau"
"100 W MARKET ST, Charlottesville, VA",38.031682,-78.481145,0.8,range_interpolation,100,"Market St",,,Charlottesville,VA,"Albemarle County",22902,US,"TIGER/Line® dataset from the US Census Bureau"
"800 W MAIN ST, Charlottesville, VA",38.031848,-78.490814,1,range_interpolation,800,"W Main St",,,Charlottesville,VA,"Albemarle County",22903,US,"TIGER/Line® dataset from the US Census Bureau"
"700 W MAIN ST, Charlottesville, VA",38.031595,-78.489768,1,range_interpolation,700,"W Main St",,,Charlottesville,VA,"Albemarle County",22903,US,"TIGER/Line® dataset from the US Census Bureau"
"100 LANKFORD AVE, Charlottesville, VA",38.021191,-78.487098,1,rooftop,100,"Lankford Ave",,,Charlottesville,VA,"Albemarle County",22902,US,"City of Charlottesville"
"600 E MARKET ST, Charlottesville, VA",38.030267,-78.477549,1,range_interpolation,600,"Market St E",,,Charlottesville,VA,"Albemarle County",22902,US,"TIGER/Line® dataset from the US Census Bureau"
"900 1ST ST S, Charlottesville, VA",38.022908,-78.485672,1,rooftop,900,"1st St S",,,Charlottesville,VA,"Albemarle County",22902,US,"Virginia Geographic Information Network (VGIN)"
"100 ZAN RD, Charlottesville, VA",38.063487,-78.489339,1,rooftop,100,"Zan Rd",,,Charlottesville,VA,"Albemarle County",22901,US,"City of Charlottesville"
"500 12TH ST NW, Charlottesville, VA",38.038558,-78.494435,1,rooftop,500,"12th St NW",,,Charlottesville,VA,"Albemarle County",22903,US,"City of Charlottesville"
"1000 FOREST HILLS AVE, Charlottesville, VA",38.025451,-78.495668,1,range_interpolation,1000,"Forest Hills Ave",,,Charlottesville,VA,"Albemarle County",22903,US,"TIGER/Line® dataset from the US Census Bureau"
"400 GARRETT ST, Charlottesville, VA",38.027754,-78.481638,1,rooftop,400,"Garrett St",,,Charlottesville,VA,"Albemarle County",22902,US,"Virginia Geographic Information Network (VGIN)"
"1400 SHORT 18TH ST, Charlottesville, VA",38.026538,-78.462371,1,rooftop,1400,"Short 18th St",,,Charlottesville,VA,"Albemarle County",22902,US,"City of Charlottesville"
"800 HARDY DR, Charlottesville, VA",38.033559,-78.490241,1,range_interpolation,800,"Hardy Dr",,,Charlottesville,VA,"Albemarle County",22903,US,"TIGER/Line® dataset from the US Census Bureau"
"400 GARRETT ST, Charlottesville, VA",38.027754,-78.481638,1,rooftop,400,"Garrett St",,,Charlottesville,VA,"Albemarle County",22902,US,"Virginia Geographic Information Network (VGIN)"
"600 E WATER ST, Charlottesville, VA",38.028772,-78.477348,1,rooftop,600,"E Water St",,,Charlottesville,VA,"Albemarle County",22903,US,"City of Charlottesville"
"700 ROCKLAND AVE, Charlottesville, VA",38.017903,-78.48365,1,rooftop,700,"Rockland Ave",,,Charlottesville,VA,"Albemarle County",22902,US,"City of Charlottesville"
"1400 MELBOURNE RD, Charlottesville, VA",38.052489,-78.475702,1,rooftop,1400,"Melbourne Rd",,,Charlottesville,VA,"Albemarle County",22902,US,"City of Charlottesville"
"100 ROBERTSON AVE, Charlottesville, VA",38.024224,-78.514847,1,range_interpolation,100,"Robertson Ave",,,Charlottesville,VA,"Albemarle County",22903,US,"TIGER/Line® dataset from the US Census Bureau"
"NA WATER ST, Charlottesville, VA",38.026588,-78.48045,1,place,,,,,Charlottesville,VA,"Charlottesville city",22902,US,"TIGER/Line® dataset from the US Census Bureau"
"1400 MELBOURNE RD, Charlottesville, VA",38.052489,-78.475702,1,rooftop,1400,"Melbourne Rd",,,Charlottesville,VA,"Albemarle County",22902,US,"City of Charlottesville"
"700 LOCUST AVE, Charlottesville, VA",38.034069,-78.469205,1,rooftop,700,"Locust Ave",,,Charlottesville,VA,"Albemarle County",22902,US,"City of Charlottesville"
"200 OLD LYNCHBURG RD, Charlottesville, VA",38.015367,-78.514855,1,range_interpolation,200,"Old Lynchburg Rd",,,Charlottesville,VA,"Albemarle County",22903,US,"TIGER/Line® dataset from the US Census Bureau"
"100 1ST ST S, Charlottesville, VA",38.030923,-78.481507,1,range_interpolation,100,"1st St S",,,Charlottesville,VA,"Albemarle County",22902,US,"TIGER/Line® dataset from the US Census Bureau"
"100 1ST ST S, Charlottesville, VA",38.030923,-78.481507,1,range_interpolation,100,"1st St S",,,Charlottesville,VA,"Albemarle County",22902,US,"TIGER/Line® dataset from the US Census Bureau"
"600 E MARKET ST, Charlottesville, VA",38.030267,-78.477549,1,range_interpolation,600,"Market St E",,,Charlottesville,VA,"Albemarle County",22902,US,"TIGER/Line® dataset from the US Census Bureau"
"400 13TH ST EXT, Charlottesville, VA",38.02923,-78.466351,0.9,rooftop,400,"13th St NE",,,Charlottesville,VA,"Albemarle County",22902,US,"City of Charlottesville"
"400 13TH ST NW, Charlottesville, VA",38.036718,-78.496805,1,range_interpolation,400,"13th St NW",,,Charlottesville,VA,"Albemarle County",22903,US,"TIGER/Line® dataset from the US Census Bureau"
"700 PARK ST, Charlottesville, VA",38.036958,-78.474601,0.82,nearest_rooftop_match,702,"Park St",,,Charlottesville,VA,"Albemarle County",22902,US,"Virginia Geographic Information Network (VGIN)"
"2300 HIGHLAND AVE, Charlottesville, VA",38.024615,-78.511134,1,range_interpolation,2300,"Highland Ave",,,Charlottesville,VA,"Albemarle County",22903,US,"TIGER/Line® dataset from the US Census Bureau"
"600 E MARKET ST, Charlottesville, VA",38.030267,-78.477549,1,range_interpolation,600,"Market St E",,,Charlottesville,VA,"Albemarle County",22902,US,"TIGER/Line® dataset from the US Census Bureau"
"1400 MELBOURNE RD, Charlottesville, VA",38.052489,-78.475702,1,rooftop,1400,"Melbourne Rd",,,Charlottesville,VA,"Albemarle County",22902,US,"City of Charlottesville"
"1100 5TH ST SW, Charlottesville, VA",38.014495,-78.50005,1,range_interpolation,1100,"5th St SW",,,Charlottesville,VA,"Albemarle County",22902,US,"TIGER/Line® dataset from the US Census Bureau"
"800 W MAIN ST, Charlottesville, VA",38.031848,-78.490814,1,range_interpolation,800,"W Main St",,,Charlottesville,VA,"Albemarle County",22903,US,"TIGER/Line® dataset from the US Census Bureau"
"100 RIDGE ST, Charlottesville, VA",38.029753,-78.484568,1,rooftop,100,"Ridge St",,,Charlottesville,VA,"Albemarle County",22901,US,"City of Charlottesville"
"900 ST CLAIR AVE, Charlottesville, VA",38.037307,-78.46384,1,rooftop,900,"St Clair Ave",,,Charlottesville,VA,"Albemarle County",22901,US,"City of Charlottesville"
"200 E WATER ST, Charlottesville, VA",38.02935,-78.480554,1,rooftop,200,"E Water St",,,Charlottesville,VA,"Albemarle County",22901,US,"City of Charlottesville"
"900 EMMET ST N, Charlottesville, VA",38.048623,-78.503011,1,rooftop,900,"Emmet St N",,,Charlottesville,VA,"Albemarle County",22903,US,"City of Charlottesville"
"100 AVON ST, Charlottesville, VA",38.027853,-78.475188,1,rooftop,100,"Avon St",,,Charlottesville,VA,"Albemarle County",22902,US,"City of Charlottesville"
"100 E MAIN ST, Charlottesville, VA",38.030363,-78.481565,1,rooftop,100,"E Main St",,,Charlottesville,VA,"Albemarle County",22901,US,"City of Charlottesville"
"800 HENRY AVE, Charlottesville, VA",38.038237,-78.485851,1,rooftop,800,"Henry Ave",,,Charlottesville,VA,"Albemarle County",22903,US,"City of Charlottesville"
"900 1ST ST, Charlottesville, VA",38.023473,-78.485705,1,range_interpolation,900,"1st St",,,Charlottesville,VA,"Albemarle County",22902,US,"TIGER/Line® dataset from the US Census Bureau"
"300 E MARKET ST, Charlottesville, VA",38.030905,-78.479564,1,rooftop,300,"E Market St",,,Charlottesville,VA,"Albemarle County",22902,US,"City of Charlottesville"
"500 CHERRY AVE, Charlottesville, VA",38.02629,-78.491051,1,rooftop,500,"Cherry Ave",,,Charlottesville,VA,"Albemarle County",22903,US,"City of Charlottesville"
"1400 BELLEVIEW AVE, Charlottesville, VA",38.037759,-78.459606,0.6,street_center,,"Belleview Ave",,,Charlottesville,VA,"Albemarle County",22901,US,"TIGER/Line® dataset from the US Census Bureau"
"400 ALTAMONT ST, Charlottesville, VA",38.033849,-78.482417,1,rooftop,400,"Altamont St",,,Charlottesville,VA,"Albemarle County",22902,US,"City of Charlottesville"
"700 PROSPECT AVE, Charlottesville, VA",38.024646,-78.494399,1,rooftop,700,"Prospect Ave",,,Charlottesville,VA,"Albemarle County",22903,US,"Virginia Geographic Information Network (VGIN)"
"900 EMMET ST N, Charlottesville, VA",38.048623,-78.503011,1,rooftop,900,"Emmet St N",,,Charlottesville,VA,"Albemarle County",22903,US,"City of Charlottesville"
"2200 ANGUS RD, Charlottesville, VA",38.060894,-78.49691,1,rooftop,2200,"Angus Rd",,,Charlottesville,VA,"Albemarle County",22901,US,"City of Charlottesville"
"400 4TH ST NW, Charlottesville, VA",38.033577,-78.485453,1,range_interpolation,400,"4th St NW",,,Charlottesville,VA,"Albemarle County",22903,US,"TIGER/Line® dataset from the US Census Bureau"
"600 SHAMROCK RD, Charlottesville, VA",38.022903,-78.505453,1,rooftop,600,"Shamrock Rd",,,Charlottesville,VA,"Albemarle County",22903,US,"City of Charlottesville"
"1400 VINE ST, Charlottesville, VA",38.019645,-78.46853,1,rooftop,1400,"Vine St",,,Charlottesville,VA,"Albemarle County",22902,US,"City of Charlottesville"
"NA VINE/RIVES ST, Charlottesville, VA",38.026588,-78.48045,1,place,,,,,Charlottesville,VA,"Charlottesville city",22902,US,"TIGER/Line® dataset from the US Census Bureau"
"1100 FOREST ST, Charlottesville, VA",38.039571,-78.484022,0.9,range_interpolation,1100,"Forrest St",,,Charlottesville,VA,"Albemarle County",22903,US,"TIGER/Line® dataset from the US Census Bureau"
"1400 MELBOURNE RD, Charlottesville, VA",38.052489,-78.475702,1,rooftop,1400,"Melbourne Rd",,,Charlottesville,VA,"Albemarle County",22902,US,"City of Charlottesville"
"100 PIEDMONT AVE S, Charlottesville, VA",38.024329,-78.518797,1,range_interpolation,100,"Piedmont Ave S",,,Charlottesville,VA,"Albemarle County",22903,US,"TIGER/Line® dataset from the US Census Bureau"
"100 MONTROSE AVE, Charlottesville, VA",38.020587,-78.477671,0.6,street_center,,"Montrose Ave",,,Charlottesville,VA,"Albemarle County",22902,US,"TIGER/Line® dataset from the US Census Bureau"
"1200 ST GEORGE AVE, Charlottesville, VA",38.039221,-78.461086,0.81,nearest_rooftop_match,1204,"St George Ave",,,Charlottesville,VA,"Albemarle County",22901,US,"Virginia Geographic Information Network (VGIN)"
"400 ALTAMONT CIR, Charlottesville, VA",38.033474,-78.48135,1,rooftop,400,"Altamont Cir",,,Charlottesville,VA,"Albemarle County",22902,US,"City of Charlottesville"
"500 DALE AVE, Charlottesville, VA",38.035362,-78.48436,1,range_interpolation,500,"Dale Ave",,,Charlottesville,VA,"Albemarle County",22903,US,"TIGER/Line® dataset from the US Census Bureau"
"900 MONTICELLO AVE, Charlottesville, VA",38.02264,-78.475923,1,rooftop,900,"Monticello Ave",,,Charlottesville,VA,"Albemarle County",22901,US,"City of Charlottesville"
"100 W MAIN ST, Charlottesville, VA",38.030482,-78.481848,1,rooftop,100,"W Main St",,,Charlottesville,VA,"Albemarle County",22902,US,"Virginia Geographic Information Network (VGIN)"
"1500 AVON ST EXT, Charlottesville, VA",38.016551,-78.484683,0.78,nearest_rooftop_match,1480,"Avon St",,,Charlottesville,VA,"Albemarle County",22902,US,"City of Charlottesville"
"100 MAURY AVE, Charlottesville, VA",38.025813,-78.515097,1,range_interpolation,100,"Maury Ave",,,Charlottesville,VA,"Albemarle County",22903,US,"TIGER/Line® dataset from the US Census Bureau"
"200 W WATER ST, Charlottesville, VA",38.030184,-78.482828,1,rooftop,200,"W Water St",,,Charlottesville,VA,"Albemarle County",22902,US,"City of Charlottesville"
"1600 MERIDIAN ST, Charlottesville, VA",38.015145,-78.481442,1,range_interpolation,1600,"Meridian St",,,Charlottesville,VA,"Albemarle County",22902,US,"TIGER/Line® dataset from the US Census Bureau"
"200 W HIGH ST, Charlottesville, VA",38.032619,-78.479731,1,range_interpolation,200,"State Rte 631",,,Charlottesville,VA,"Albemarle County",22902,US,"TIGER/Line® dataset from the US Census Bureau"
"900 E JEFFERSON ST, Charlottesville, VA",38.03031,-78.474402,1,rooftop,900,"E Jefferson St",,,Charlottesville,VA,"Albemarle County",22901,US,"City of Charlottesville"
"100 HAMMOND ST, Charlottesville, VA",38.026588,-78.48045,0.33,place,,,,,Charlottesville,VA,"Charlottesville city",22902,US,"TIGER/Line® dataset from the US Census Bureau"
"2600 JEFFERSON PARK AVE, Charlottesville, VA",38.018628,-78.51303,1,rooftop,2600,"Jefferson Park Ave",,,Charlottesville,VA,"Albemarle County",22901,US,"City of Charlottesville"
"1900 EMMET ST N, Charlottesville, VA",38.060855,-78.492224,1,range_interpolation,1900,"Emmet St N",,,Charlottesville,VA,"Albemarle County",22903,US,"TIGER/Line® dataset from the US Census Bureau"
"600 E MARKET ST, Charlottesville, VA",38.030267,-78.477549,1,range_interpolation,600,"Market St E",,,Charlottesville,VA,"Albemarle County",22902,US,"TIGER/Line® dataset from the US Census Bureau"
"500 1ST ST N, Charlottesville, VA",38.034447,-78.479734,1,range_interpolation,500,"1st St N",,,Charlottesville,VA,"Albemarle County",22902,US,"TIGER/Line® dataset from the US Census Bureau"
