Addresses,Latitude,Longitude,"Accuracy Score","Accuracy Type",Number,Street,"Unit Type","Unit Number",City,State,County,Zip,Country,Source
"900 RIVER RD, Charlottesville, VA",38.035852,-78.457354,1,rooftop,900,"River Rd",,,Charlottesville,VA,"Albemarle County",22901,US,"City of Charlottesville"
"600 250 BYPASS, Charlottesville, VA",38.039765,-78.47183,0.81,nearest_rooftop_match,606,"250th Byp",,,Charlottesville,VA,"Albemarle County",22902,US,"Virginia Geographic Information Network (VGIN)"
"1900 LEWIS MOUNTAIN RD, Charlottesville, VA",38.037634,-78.507499,1,range_interpolation,1900,"Lewis Mountain Rd",,,Charlottesville,VA,"Albemarle County",22903,US,"TIGER/Line® dataset from the US Census Bureau"
"NA NASSAU ST / FRANKLIN ST, Charlottesville, VA",38.026588,-78.48045,1,place,,,,,Charlottesville,VA,"Charlottesville city",22902,US,"TIGER/Line® dataset from the US Census Bureau"
"900 BELMONT AVE, Charlottesville, VA",38.023363,-78.475421,1,rooftop,900,"Belmont Ave",,,Charlottesville,VA,"Albemarle County",22902,US,"City of Charlottesville"
"100 W MAIN ST, Charlottesville, VA",38.030482,-78.481848,1,rooftop,100,"W Main St",,,Charlottesville,VA,"Albemarle County",22902,US,"Virginia Geographic Information Network (VGIN)"
"300 13TH ST NE, Charlottesville, VA",38.028078,-78.467115,1,rooftop,300,"13th St NE",,,Charlottesville,VA,"Albemarle County",22902,US,"City of Charlottesville"
"1100 5TH ST SW, Charlottesville, VA",38.014495,-78.50005,1,range_interpolation,1100,"5th St SW",,,Charlottesville,VA,"Albemarle County",22902,US,"TIGER/Line® dataset from the US Census Bureau"
"1200 ST GEORGE AVE, Charlottesville, VA",38.039221,-78.461086,0.81,nearest_rooftop_match,1204,"St George Ave",,,Charlottesville,VA,"Albemarle County",22901,US,"Virginia Geographic Information Network (VGIN)"
"100 MADISON LN, Charlottesville, VA",38.036242,-78.502401,1,range_interpolation,100,"Madison Ln",,,Charlottesville,VA,"Albemarle County",22903,US,"TIGER/Line® dataset from the US Census Bureau"
"400 GARRETT ST, Charlottesville, VA",38.027754,-78.481638,1,rooftop,400,"Garrett St",,,Charlottesville,VA,"Albemarle County",22902,US,"Virginia Geographic Information Network (VGIN)"
"600 12TH ST NW, Charlottesville, VA",38.039278,-78.494309,1,range_interpolation,600,"12th St NW",,,Charlottesville,VA,"Albemarle County",22903,US,"TIGER/Line® dataset from the US Census Bureau"
"2100 MICHIE DR, Charlottesville, VA",38.065057,-78.48225,1,rooftop,2100,"Michie Dr",,,Charlottesville,VA,"Albemarle County",22901,US,"City of Charlottesville"
"400 FAIRWAY AVE, Charlottesville, VA",38.027873,-78.461791,1,rooftop,400,"Fairway Ave",,,Charlottesville,VA,"Albemarle County",22902,US,"City of Charlottesville"
"NA EMMET ST N / ARLINGTON BLVD, Charlottesville, VA",38.026588,-78.48045,1,place,,,,,Charlottesville,VA,"Charlottesville city",22902,US,"TIGER/Line® dataset from the US Census Bureau"
"1400 EMMET ST, Charlottesville, VA",38.055785,-78.496363,0.9,range_interpolation,1400,"Emmet St N",,,Charlottesville,VA,"Albemarle County",22903,US,"TIGER/Line® dataset from the US Census Bureau"
"600 E HIGH ST, Charlottesville, VA",38.031779,-78.476942,1,range_interpolation,600,"High St E",,,Charlottesville,VA,"Albemarle County",22902,US,"TIGER/Line® dataset from the US Census Bureau"
"1400 UNIVERSITY AVE, Charlottesville, VA",38.033951,-78.49996,1,rooftop,1400,"University Ave",,,Charlottesville,VA,"Albemarle County",22903,US,Albemarle
"1400 EMMET ST, Charlottesville, VA",38.055785,-78.496363,0.9,range_interpolation,1400,"Emmet St N",,,Charlottesville,VA,"Albemarle County",22903,US,"TIGER/Line® dataset from the US Census Bureau"
"100 CHANCELLOR ST, Charlottesville, VA",38.035846,-78.50148,1,range_interpolation,100,"Chancellor St",,,Charlottesville,VA,"Albemarle County",22903,US,"TIGER/Line® dataset from the US Census Bureau"
"1100 EMMET ST N, Charlottesville, VA",38.051498,-78.5002,1,range_interpolation,1100,"Emmet St N",,,Charlottesville,VA,"Albemarle County",22903,US,"TIGER/Line® dataset from the US Census Bureau"
"600 ROCK CREEK RD, Charlottesville, VA",38.053357,-78.426068,0.9,rooftop,600,"Rocky Hollow Rd",,,Charlottesville,VA,"Albemarle County",22911,US,Albemarle
"300 15TH ST NW, Charlottesville, VA",38.036158,-78.499392,1,range_interpolation,300,"15th St NW",,,Charlottesville,VA,"Albemarle County",22903,US,"TIGER/Line® dataset from the US Census Bureau"
"2000 HOLIDAY DR, Charlottesville, VA",38.057743,-78.491336,1,rooftop,2000,"Holiday Dr",,,Charlottesville,VA,"Albemarle County",22901,US,"City of Charlottesville"
"4000 CITY WALK WAY, Charlottesville, VA",38.026588,-78.48045,0.33,place,,,,,Charlottesville,VA,"Charlottesville city",22902,US,"TIGER/Line® dataset from the US Census Bureau"
"100 2ND ST NE, Charlottesville, VA",38.030391,-78.480746,1,range_interpolation,100,"2nd St NE",,,Charlottesville,VA,"Albemarle County",22902,US,"TIGER/Line® dataset from the US Census Bureau"
"800 W MAIN ST, Charlottesville, VA",38.031848,-78.490814,1,range_interpolation,800,"W Main St",,,Charlottesville,VA,"Albemarle County",22903,US,"TIGER/Line® dataset from the US Census Bureau"
"700 WALKER SQ, Charlottesville, VA",38.030203,-78.491156,1,rooftop,700,"Walker Sq",,,Charlottesville,VA,"Albemarle County",22902,US,"City of Charlottesville"
"800 ALTAVISTA AVE, Charlottesville, VA",38.019507,-78.480355,1,rooftop,800,"Altavista Ave",,,Charlottesville,VA,"Albemarle County",22902,US,"City of Charlottesville"
"2500 WOODLAND DR, Charlottesville, VA",38.020411,-78.512573,1,range_interpolation,2500,"Woodland Dr",,,Charlottesville,VA,"Albemarle County",22903,US,"TIGER/Line® dataset from the US Census Bureau"
"600 E MARKET ST, Charlottesville, VA",38.030267,-78.477549,1,range_interpolation,600,"Market St E",,,Charlottesville,VA,"Albemarle County",22902,US,"TIGER/Line® dataset from the US Census Bureau"
"1300 MOUNTAIN VIEW ST, Charlottesville, VA",38.014226,-78.473591,1,range_interpolation,1300,"Mountain View St",,,Charlottesville,VA,"Albemarle County",22902,US,"TIGER/Line® dataset from the US Census Bureau"
"1400 WESTWOOD RD, Charlottesville, VA",38.044993,-78.479702,1,range_interpolation,1400,"Westwood Rd",,,Charlottesville,VA,"Albemarle County",22903,US,"TIGER/Line® dataset from the US Census Bureau"
"700 ORANGEDALE AVE, Charlottesville, VA",38.024675,-78.495376,1,rooftop,700,"Orangedale Ave",,,Charlottesville,VA,"Albemarle County",22903,US,"City of Charlottesville"
"300 6 1/2 ST SW, Charlottesville, VA",38.029641,-78.490293,1,range_interpolation,300,"6 1/2 St SW",,,Charlottesville,VA,"Albemarle County",22903,US,"TIGER/Line® dataset from the US Census Bureau"
"100 SEMINOLE CT, Charlottesville, VA",38.065629,-78.488112,1,range_interpolation,100,"Seminole Ct",,,Charlottesville,VA,"Albemarle County",22901,US,"TIGER/Line® dataset from the US Census Bureau"
"1100 PRESTON AVE, Charlottesville, VA",38.042033,-78.491926,1,rooftop,1100,"Preston Ave",,,Charlottesville,VA,"Albemarle County",22903,US,"City of Charlottesville"
"700 E MAIN ST, Charlottesville, VA",38.029226,-78.47664,1,rooftop,700,"E Main St",,,Charlottesville,VA,"Albemarle County",22902,US,"Virginia Geographic Information Network (VGIN)"
"NA RIDGE ST @ CHERRY AVE, Charlottesville, VA",38.026588,-78.48045,1,place,,,,,Charlottesville,VA,"Charlottesville city",22902,US,"TIGER/Line® dataset from the US Census Bureau"
"500 E MARKET ST, Charlottesville, VA",38.030358,-78.478079,1,rooftop,500,"E Market St",,,Charlottesville,VA,"Albemarle County",22902,US,"City of Charlottesville"
"400 4TH ST NW, Charlottesville, VA",38.033577,-78.485453,1,range_interpolation,400,"4th St NW",,,Charlottesville,VA,"Albemarle County",22903,US,"TIGER/Line® dataset from the US Census Bureau"
"600 MARKET ST, Charlottesville, VA",38.030267,-78.477549,0.8,range_interpolation,600,"Market St E",,,Charlottesville,VA,"Albemarle County",22902,US,"TIGER/Line® dataset from the US Census Bureau"
"400 ELLIOTT AVE, Charlottesville, VA",38.022593,-78.48463,1,range_interpolation,400,"Elliott Ave",,,Charlottesville,VA,"Albemarle County",22902,US,"TIGER/Line® dataset from the US Census Bureau"
"1500 ROSA TER, Charlottesville, VA",38.019814,-78.486029,1,range_interpolation,1500,"Rosa Ter",,,Charlottesville,VA,"Albemarle County",22902,US,"TIGER/Line® dataset from the US Census Bureau"
"600 MARKET ST, Charlottesville, VA",38.030267,-78.477549,0.8,range_interpolation,600,"Market St E",,,Charlottesville,VA,"Albemarle County",22902,US,"TIGER/Line® dataset from the US Census Bureau"
"1200 WERTLAND ST, Charlottesville, VA",38.034171,-78.496505,1,rooftop,1200,"Wertland St",,,Charlottesville,VA,"Albemarle County",22903,US,"Virginia Geographic Information Network (VGIN)"
"1300 W MAIN ST, Charlottesville, VA",38.033404,-78.49779,1,range_interpolation,1300,"Main St W",,,Charlottesville,VA,"Albemarle County",22903,US,"TIGER/Line® dataset from the US Census Bureau"
"1500 ROSE HILL DR, Charlottesville, VA",38.048605,-78.483245,1,range_interpolation,1500,"Rose Hill Dr",,,Charlottesville,VA,"Albemarle County",22903,US,"TIGER/Line® dataset from the US Census Bureau"
"1200 EMMET ST, Charlottesville, VA",38.052819,-78.498406,0.9,rooftop,1200,"Emmet St N",,,Charlottesville,VA,"Albemarle County",22903,US,"City of Charlottesville"
"2500 JEFFERSON PARK AVE, Charlottesville, VA",38.020243,-78.514161,1,rooftop,2500,"Jefferson Park Ave",,,Charlottesville,VA,"Albemarle County",22903,US,"City of Charlottesville"
"2500 HILLWOOD PL, Charlottesville, VA",38.065801,-78.472363,1,rooftop,2500,"Hillwood Pl",,,Charlottesville,VA,"Albemarle County",22901,US,"City of Charlottesville"
"800 W MAIN ST, Charlottesville, VA",38.031848,-78.490814,1,range_interpolation,800,"W Main St",,,Charlottesville,VA,"Albemarle County",22903,US,"TIGER/Line® dataset from the US Census Bureau"
"500 CHERRY AVE, Charlottesville, VA",38.02629,-78.491051,1,rooftop,500,"Cherry Ave",,,Charlottesville,VA,"Albemarle County",22903,US,"City of Charlottesville"
"1100 5TH ST SW, Charlottesville, VA",38.014495,-78.50005,1,range_interpolation,1100,"5th St SW",,,Charlottesville,VA,"Albemarle County",22902,US,"TIGER/Line® dataset from the US Census Bureau"
"900 NASSAU ST, Charlottesville, VA",38.01721,-78.468552,1,range_interpolation,900,"Nassau St",,,Charlottesville,VA,"Albemarle County",22902,US,"TIGER/Line® dataset from the US Census Bureau"
"400 GARRETT ST, Charlottesville, VA",38.027754,-78.481638,1,rooftop,400,"Garrett St",,,Charlottesville,VA,"Albemarle County",22902,US,"Virginia Geographic Information Network (VGIN)"
"900 EMMET ST N, Charlottesville, VA",38.048623,-78.503011,1,rooftop,900,"Emmet St N",,,Charlottesville,VA,"Albemarle County",22903,US,"City of Charlottesville"
"1400 FOREST RIDGE RD, Charlottesville, VA",38.025502,-78.49774,1,range_interpolation,1400,"Forest Ridge Rd",,,Charlottesville,VA,"Albemarle County",22903,US,"TIGER/Line® dataset from the US Census Bureau"
"300 HUNTLEY AVE, Charlottesville, VA",38.019183,-78.519455,1,rooftop,300,"Huntley Ave",,,Charlottesville,VA,"Albemarle County",22903,US,"City of Charlottesville"
"600 MCINTIRE RD, Charlottesville, VA",38.036748,-78.479032,1,rooftop,600,"McIntire Rd",,,Charlottesville,VA,"Albemarle County",22902,US,"City of Charlottesville"
"500 HARRIS RD, Charlottesville, VA",38.014946,-78.503703,1,range_interpolation,500,"Harris Rd",,,Charlottesville,VA,"Albemarle County",22903,US,"TIGER/Line® dataset from the US Census Bureau"
"1300 LITTLE HIGH ST, Charlottesville, VA",38.029032,-78.466769,1,rooftop,1300,"Little High St",,,Charlottesville,VA,"Albemarle County",22902,US,"City of Charlottesville"
"700 PROSPECT AVE, Charlottesville, VA",38.024646,-78.494399,1,rooftop,700,"Prospect Ave",,,Charlottesville,VA,"Albemarle County",22903,US,"Virginia Geographic Information Network (VGIN)"
"1100 MILLMONT ST, Charlottesville, VA",38.052642,-78.502484,1,range_interpolation,1100,"Millmont St",,,Charlottesville,VA,"Albemarle County",22903,US,"TIGER/Line® dataset from the US Census Bureau"
"700 DALE AVE, Charlottesville, VA",38.03645,-78.485982,1,range_interpolation,700,"Dale Ave",,,Charlottesville,VA,"Albemarle County",22903,US,"TIGER/Line® dataset from the US Census Bureau"
"2300 HIGHLAND AVE, Charlottesville, VA",38.024615,-78.511134,1,range_interpolation,2300,"Highland Ave",,,Charlottesville,VA,"Albemarle County",22903,US,"TIGER/Line® dataset from the US Census Bureau"
"1300 CARLTON AVE, Charlottesville, VA",38.022084,-78.469217,1,rooftop,1300,"Carlton Ave",,,Charlottesville,VA,"Albemarle County",22902,US,"City of Charlottesville"
"300 15TH ST NW, Charlottesville, VA",38.036158,-78.499392,1,range_interpolation,300,"15th St NW",,,Charlottesville,VA,"Albemarle County",22903,US,"TIGER/Line® dataset from the US Census Bureau"
"900 RAYMOND RD, Charlottesville, VA",38.016886,-78.493051,1,range_interpolation,900,"Raymond Rd",,,Charlottesville,VA,"Albemarle County",22902,US,"TIGER/Line® dataset from the US Census Bureau"
"NA WEST ST / 9TH ST NW, Charlottesville, VA",38.026588,-78.48045,1,place,,,,,Charlottesville,VA,"Charlottesville city",22902,US,"TIGER/Line® dataset from the US Census Bureau"
"1600 UNIVERSITY AVE, Charlottesville, VA",38.034497,-78.500062,0.9,range_interpolation,1600,"University Ave",,,Charlottesville,VA,"Albemarle County",22903,US,"TIGER/Line® dataset from the US Census Bureau"
"900 EMMET ST, Charlottesville, VA",38.048623,-78.503011,0.9,rooftop,900,"Emmet St N",,,Charlottesville,VA,"Albemarle County",22903,US,"City of Charlottesville"
"100 2ND ST SW, Charlottesville, VA",38.031193,-78.482244,1,range_interpolation,100,"2nd St SW",,,Charlottesville,VA,"Albemarle County",22902,US,"TIGER/Line® dataset from the US Census Bureau"
"200 W MARKET ST, Charlottesville, VA",38.031667,-78.482066,1,rooftop,200,"W Market St",,,Charlottesville,VA,"Albemarle County",22902,US,"City of Charlottesville"
"100 CARLTON RD, Charlottesville, VA",38.026723,-78.468572,1,rooftop,100,"Carlton Rd",,,Charlottesville,VA,"Albemarle County",22902,US,"City of Charlottesville"
"700 E MAIN ST, Charlottesville, VA",38.029226,-78.47664,1,rooftop,700,"E Main St",,,Charlottesville,VA,"Albemarle County",22902,US,"Virginia Geographic Information Network (VGIN)"
"100 11TH ST SW, Charlottesville, VA",38.033001,-78.495935,1,range_interpolation,100,"11th St SW",,,Charlottesville,VA,"Albemarle County",22903,US,"TIGER/Line® dataset from the US Census Bureau"
"1400 PEN PARK RD, Charlottesville, VA",38.04987,-78.451608,1,rooftop,1400,"Pen Park Rd",,,Charlottesville,VA,"Albemarle County",22901,US,"Virginia Geographic Information Network (VGIN)"
"900 1ST ST S, Charlottesville, VA",38.022908,-78.485672,1,rooftop,900,"1st St S",,,Charlottesville,VA,"Albemarle County",22902,US,"Virginia Geographic Information Network (VGIN)"
"1500 DAIRY RD, Charlottesville, VA",38.052849,-78.48642,1,range_interpolation,1500,"Dairy Rd",,,Charlottesville,VA,"Albemarle County",22903,US,"TIGER/Line® dataset from the US Census Bureau"
"300 2ND ST SE, Charlottesville, VA",38.029272,-78.481417,1,range_interpolation,300,"2nd St SE",,,Charlottesville,VA,"Albemarle County",22902,US,"TIGER/Line® dataset from the US Census Bureau"
"1400 MELBOURNE RD, Charlottesville, VA",38.052489,-78.475702,1,rooftop,1400,"Melbourne Rd",,,Charlottesville,VA,"Albemarle County",22902,US,"City of Charlottesville"
"800 HARDY DR, Charlottesville, VA",38.033559,-78.490241,1,range_interpolation,800,"Hardy Dr",,,Charlottesville,VA,"Albemarle County",22903,US,"TIGER/Line® dataset from the US Census Bureau"
"600 E MARKET ST, Charlottesville, VA",38.030267,-78.477549,1,range_interpolation,600,"Market St E",,,Charlottesville,VA,"Albemarle County",22902,US,"TIGER/Line® dataset from the US Census Bureau"
"1500 DAIRY RD, Charlottesville, VA",38.052849,-78.48642,1,range_interpolation,1500,"Dairy Rd",,,Charlottesville,VA,"Albemarle County",22903,US,"TIGER/Line® dataset from the US Census Bureau"
"1100 PAGE ST, Charlottesville, VA",38.035521,-78.495052,1,rooftop,1100,"Page St",,,Charlottesville,VA,"Albemarle County",22903,US,"City of Charlottesville"
"100 W MAIN ST, Charlottesville, VA",38.030482,-78.481848,1,rooftop,100,"W Main St",,,Charlottesville,VA,"Albemarle County",22902,US,"Virginia Geographic Information Network (VGIN)"
"500 HARRIS RD, Charlottesville, VA",38.014946,-78.503703,1,range_interpolation,500,"Harris Rd",,,Charlottesville,VA,"Albemarle County",22903,US,"TIGER/Line® dataset from the US Census Bureau"
"1000 EMMET ST N, Charlottesville, VA",38.050253,-78.50248,1,rooftop,1000,"Emmet St N",,,Charlottesville,VA,"Albemarle County",22903,US,"Virginia Geographic Information Network (VGIN)"
"400 GARRETT ST, Charlottesville, VA",38.027754,-78.481638,1,rooftop,400,"Garrett St",,,Charlottesville,VA,"Albemarle County",22902,US,"Virginia Geographic Information Network (VGIN)"
"100 LONGWOOD DR, Charlottesville, VA",38.015538,-78.504415,1,range_interpolation,100,"Longwood Dr",,,Charlottesville,VA,"Albemarle County",22903,US,"TIGER/Line® dataset from the US Census Bureau"
"NA BOND RD, Charlottesville, VA",38.026588,-78.48045,1,place,,,,,Charlottesville,VA,"Charlottesville city",22902,US,"TIGER/Line® dataset from the US Census Bureau"
"100 MCINTIRE PARK DR, Charlottesville, VA",38.026588,-78.48045,0.33,place,,,,,Charlottesville,VA,"Charlottesville city",22902,US,"TIGER/Line® dataset from the US Census Bureau"
"700 E WATER ST, Charlottesville, VA",38.02858,-78.473781,1,range_interpolation,700,"Water St E",,,Charlottesville,VA,"Albemarle County",22902,US,"TIGER/Line® dataset from the US Census Bureau"
"600 E MARKET ST, Charlottesville, VA",38.030267,-78.477549,1,range_interpolation,600,"Market St E",,,Charlottesville,VA,"Albemarle County",22902,US,"TIGER/Line® dataset from the US Census Bureau"
"1000 BELMONT AVE, Charlottesville, VA",38.022736,-78.473958,1,rooftop,1000,"Belmont Ave",,,Charlottesville,VA,"Albemarle County",22902,US,"City of Charlottesville"
"300 UNIVERSITY CIR, Charlottesville, VA",38.043331,-78.503477,1,range_interpolation,300,"University Cir",,,Charlottesville,VA,"Albemarle County",22903,US,"TIGER/Line® dataset from the US Census Bureau"
"1000 CHERRY AVE, Charlottesville, VA",38.026722,-78.497519,1,rooftop,1000,"Cherry Ave",,,Charlottesville,VA,"Albemarle County",22903,US,"City of Charlottesville"
"1600 UNIVERSITY AVE, Charlottesville, VA",38.034497,-78.500062,0.9,range_interpolation,1600,"University Ave",,,Charlottesville,VA,"Albemarle County",22903,US,"TIGER/Line® dataset from the US Census Bureau"
"900 RIVES ST, Charlottesville, VA",38.017745,-78.46969,1,rooftop,900,"Rives St",,,Charlottesville,VA,"Albemarle County",22902,US,"City of Charlottesville"
"1200 CEDARS CT, Charlottesville, VA",38.055196,-78.5015,1,range_interpolation,1200,"Cedars Ct",,,Charlottesville,VA,"Albemarle County",22903,US,"TIGER/Line® dataset from the US Census Bureau"
"100 W MARKET ST, Charlottesville, VA",38.031682,-78.481145,0.8,range_interpolation,100,"Market St",,,Charlottesville,VA,"Albemarle County",22902,US,"TIGER/Line® dataset from the US Census Bureau"
"700 MONTICELLO AVE, Charlottesville, VA",38.024058,-78.479005,1,rooftop,700,"Monticello Ave",,,Charlottesville,VA,"Albemarle County",22902,US,"City of Charlottesville"
"700 CARGIL LN, Charlottesville, VA",38.037122,-78.473965,1,range_interpolation,700,"Cargil Ln",,,Charlottesville,VA,"Albemarle County",22902,US,"TIGER/Line® dataset from the US Census Bureau"
"600 E MARKET ST, Charlottesville, VA",38.030267,-78.477549,1,range_interpolation,600,"Market St E",,,Charlottesville,VA,"Albemarle County",22902,US,"TIGER/Line® dataset from the US Census Bureau"
"1500 CHESAPEAKE ST, Charlottesville, VA",38.025075,-78.461317,1,range_interpolation,1500,"Chesapeake St",,,Charlottesville,VA,"Albemarle County",22902,US,"TIGER/Line® dataset from the US Census Bureau"
"1000 WERTLAND ST, Charlottesville, VA",38.033911,-78.494229,1,rooftop,1000,"Wertland St",,,Charlottesville,VA,"Albemarle County",22903,US,"City of Charlottesville"
"1500 GREEN ST, Charlottesville, VA",38.016703,-78.480816,1,rooftop,1500,"Green St",,,Charlottesville,VA,"Albemarle County",22902,US,"City of Charlottesville"
"900 1ST ST S, Charlottesville, VA",38.022908,-78.485672,1,rooftop,900,"1st St S",,,Charlottesville,VA,"Albemarle County",22902,US,"Virginia Geographic Information Network (VGIN)"
"1600 MULBERRY AVE, Charlottesville, VA",38.023971,-78.506828,1,rooftop,1600,"Mulberry Ave",,,Charlottesville,VA,"Albemarle County",22903,US,"City of Charlottesville"
"2400 FONTAINE AVE, Charlottesville, VA",38.025784,-78.518964,1,rooftop,2400,"Fontaine Ave",,,Charlottesville,VA,"Albemarle County",22901,US,"City of Charlottesville"
"1400 UNIVERSITY AVE, Charlottesville, VA",38.033951,-78.49996,1,rooftop,1400,"University Ave",,,Charlottesville,VA,"Albemarle County",22903,US,Albemarle
"800 HARDY DR, Charlottesville, VA",38.033559,-78.490241,1,range_interpolation,800,"Hardy Dr",,,Charlottesville,VA,"Albemarle County",22903,US,"TIGER/Line® dataset from the US Census Bureau"
"800 HARDY DR, Charlottesville, VA",38.033559,-78.490241,1,range_interpolation,800,"Hardy Dr",,,Charlottesville,VA,"Albemarle County",22903,US,"TIGER/Line® dataset from the US Census Bureau"
"1100 EMMET ST N, Charlottesville, VA",38.051498,-78.5002,1,range_interpolation,1100,"Emmet St N",,,Charlottesville,VA,"Albemarle County",22903,US,"TIGER/Line® dataset from the US Census Bureau"
"1500 GORDON AVE, Charlottesville, VA",38.039535,-78.498362,1,rooftop,1500,"Gordon Ave",,,Charlottesville,VA,"Albemarle County",22903,US,"City of Charlottesville"
"700 E MAIN ST, Charlottesville, VA",38.029226,-78.47664,1,rooftop,700,"E Main St",,,Charlottesville,VA,"Albemarle County",22902,US,"Virginia Geographic Information Network (VGIN)"
"1100 5TH ST SW, Charlottesville, VA",38.014495,-78.50005,1,range_interpolation,1100,"5th St SW",,,Charlottesville,VA,"Albemarle County",22902,US,"TIGER/Line® dataset from the US Census Bureau"
"1100 CHERRY ST, Charlottesville, VA",38.02485,-78.471272,1,rooftop,1100,"Cherry St",,,Charlottesville,VA,"Albemarle County",22902,US,"City of Charlottesville"
"2200 NORTH BERKSHIRE RD, Charlottesville, VA",38.063304,-78.497708,1,range_interpolation,2200,"N Berkshire Rd",,,Charlottesville,VA,"Albemarle County",22901,US,"TIGER/Line® dataset from the US Census Bureau"
"2100 IVY RD, Charlottesville, VA",38.042471,-78.511905,1,rooftop,2100,"Ivy Rd",,,Charlottesville,VA,"Albemarle County",22902,US,"City of Charlottesville"
"100 W MAIN ST, Charlottesville, VA",38.030482,-78.481848,1,rooftop,100,"W Main St",,,Charlottesville,VA,"Albemarle County",22902,US,"Virginia Geographic Information Network (VGIN)"
"200 E WATER ST, Charlottesville, VA",38.02935,-78.480554,1,rooftop,200,"E Water St",,,Charlottesville,VA,"Albemarle County",22901,US,"City of Charlottesville"
"100 EMMET ST, Charlottesville, VA",38.039966,-78.506381,0.9,rooftop,100,"Emmet St N",,,Charlottesville,VA,"Albemarle County",22901,US,"City of Charlottesville"
"400 MONROE LN, Charlottesville, VA",38.031716,-78.50267,1,rooftop,400,"Monroe Ln",,,Charlottesville,VA,"Albemarle County",22903,US,"Virginia Geographic Information Network (VGIN)"
"800 HARDY DR, Charlottesville, VA",38.033559,-78.490241,1,range_interpolation,800,"Hardy Dr",,,Charlottesville,VA,"Albemarle County",22903,US,"TIGER/Line® dataset from the US Census Bureau"
"800 HINTON AVE, Charlottesville, VA",38.024915,-78.476461,1,rooftop,800,"Hinton Ave",,,Charlottesville,VA,"Albemarle County",22902,US,"City of Charlottesville"
"100 13TH ST NW, Charlottesville, VA",38.033219,-78.498297,1,range_interpolation,100,"13th St NW",,,Charlottesville,VA,"Albemarle County",22903,US,"TIGER/Line® dataset from the US Census Bureau"
"200 BROOKWOOD DR, Charlottesville, VA",38.018656,-78.493476,1,range_interpolation,200,"Brookwood Dr",,,Charlottesville,VA,"Albemarle County",22902,US,"TIGER/Line® dataset from the US Census Bureau"
"100 MCINTIRE PARK DR, Charlottesville, VA",38.026588,-78.48045,0.33,place,,,,,Charlottesville,VA,"Charlottesville city",22902,US,"TIGER/Line® dataset from the US Census Bureau"
"100 7TH ST NE, Charlottesville, VA",38.029267,-78.476974,1,range_interpolation,100,"7th St NE",,,Charlottesville,VA,"Albemarle County",22902,US,"TIGER/Line® dataset from the US Census Bureau"
"500 MEADE AVE, Charlottesville, VA",38.030016,-78.46495,1,range_interpolation,500,"Meade Ave",,,Charlottesville,VA,"Albemarle County",22902,US,"TIGER/Line® dataset from the US Census Bureau"
"100 SEMINOLE CT, Charlottesville, VA",38.065629,-78.488112,1,range_interpolation,100,"Seminole Ct",,,Charlottesville,VA,"Albemarle County",22901,US,"TIGER/Line® dataset from the US Census Bureau"
"1900 ARLINGTON BLVD, Charlottesville, VA",38.047832,-78.504303,1,rooftop,1900,"Arlington Blvd",,,Charlottesville,VA,"Albemarle County",22903,US,"City of Charlottesville"
"1100 E HIGH ST, Charlottesville, VA",38.03154,-78.47007,1,rooftop,1100,"E High St",,,Charlottesville,VA,"Albemarle County",22902,US,"City of Charlottesville"
"300 E MAIN ST, Charlottesville, VA",38.029931,-78.48003,1,rooftop,300,"E Main St",,,Charlottesville,VA,"Albemarle County",22902,US,"Virginia Geographic Information Network (VGIN)"
"100 LANKFORD AVE, Charlottesville, VA",38.021191,-78.487098,1,rooftop,100,"Lankford Ave",,,Charlottesville,VA,"Albemarle County",22902,US,"City of Charlottesville"
"1600 MULBERRY AVE, Charlottesville, VA",38.023971,-78.506828,1,rooftop,1600,"Mulberry Ave",,,Charlottesville,VA,"Albemarle County",22903,US,"City of Charlottesville"
"2000 IVY RD, Charlottesville, VA",38.041645,-78.509653,1,range_interpolation,2000,"Ivy Rd",,,Charlottesville,VA,"Albemarle County",22903,US,"TIGER/Line® dataset from the US Census Bureau"
"700 PROSPECT AVE, Charlottesville, VA",38.024646,-78.494399,1,rooftop,700,"Prospect Ave",,,Charlottesville,VA,"Albemarle County",22903,US,"Virginia Geographic Information Network (VGIN)"
"700 PROSPECT AVE, Charlottesville, VA",38.024646,-78.494399,1,rooftop,700,"Prospect Ave",,,Charlottesville,VA,"Albemarle County",22903,US,"Virginia Geographic Information Network (VGIN)"
"2200 JEFFERSON PARK AVE, Charlottesville, VA",38.025169,-78.514956,1,range_interpolation,2200,"Jefferson Park Ave",,,Charlottesville,VA,"Albemarle County",22903,US,"TIGER/Line® dataset from the US Census Bureau"
"1900 EMMET ST N, Charlottesville, VA",38.060855,-78.492224,1,range_interpolation,1900,"Emmet St N",,,Charlottesville,VA,"Albemarle County",22903,US,"TIGER/Line® dataset from the US Census Bureau"
"1000 EMMET ST N, Charlottesville, VA",38.050253,-78.50248,1,rooftop,1000,"Emmet St N",,,Charlottesville,VA,"Albemarle County",22903,US,"Virginia Geographic Information Network (VGIN)"
"1100 5TH ST SW, Charlottesville, VA",38.014495,-78.50005,1,range_interpolation,1100,"5th St SW",,,Charlottesville,VA,"Albemarle County",22902,US,"TIGER/Line® dataset from the US Census Bureau"
"700 6TH ST SE, Charlottesville, VA",38.025291,-78.480685,1,range_interpolation,700,"6th St SE",,,Charlottesville,VA,"Albemarle County",22902,US,"TIGER/Line® dataset from the US Census Bureau"
"600 E MARKET ST, Charlottesville, VA",38.030267,-78.477549,1,range_interpolation,600,"Market St E",,,Charlottesville,VA,"Albemarle County",22902,US,"TIGER/Line® dataset from the US Census Bureau"
"400 11TH ST NE, Charlottesville, VA",38.030534,-78.470865,1,range_interpolation,400,"11th St NE",,,Charlottesville,VA,"Albemarle County",22902,US,"TIGER/Line® dataset from the US Census Bureau"
"300 ALDERMAN RD, Charlottesville, VA",38.040239,-78.514093,1,range_interpolation,300,"Alderman Rd",,,Charlottesville,VA,"Albemarle County",22903,US,"TIGER/Line® dataset from the US Census Bureau"
"900 ST CLAIR AVE, Charlottesville, VA",38.037307,-78.46384,1,rooftop,900,"St Clair Ave",,,Charlottesville,VA,"Albemarle County",22901,US,"City of Charlottesville"
"300 4TH ST SE, Charlottesville, VA",38.028639,-78.479375,1,rooftop,300,"4th St SE",,,Charlottesville,VA,"Albemarle County",22901,US,"City of Charlottesville"
"1400 PEN PARK RD, Charlottesville, VA",38.04987,-78.451608,1,rooftop,1400,"Pen Park Rd",,,Charlottesville,VA,"Albemarle County",22901,US,"Virginia Geographic Information Network (VGIN)"
"NA CARLTON AVE / GARDEN ST, Charlottesville, VA",38.026588,-78.48045,1,place,,,,,Charlottesville,VA,"Charlottesville city",22902,US,"TIGER/Line® dataset from the US Census Bureau"
"900 PAOLI ST, Charlottesville, VA",38.035264,-78.491317,1,range_interpolation,900,"Paoli St",,,Charlottesville,VA,"Albemarle County",22903,US,"TIGER/Line® dataset from the US Census Bureau"
"300 E HIGH ST, Charlottesville, VA",38.032381,-78.478954,1,range_interpolation,300,"State Rte 631",,,Charlottesville,VA,"Albemarle County",22902,US,"TIGER/Line® dataset from the US Census Bureau"
"1400 MELBOURNE RD, Charlottesville, VA",38.052489,-78.475702,1,rooftop,1400,"Melbourne Rd",,,Charlottesville,VA,"Albemarle County",22902,US,"City of Charlottesville"
"1000 W MAIN ST, Charlottesville, VA",38.031987,-78.49551,1,rooftop,1000,"W Main St",,,Charlottesville,VA,"Albemarle County",22903,US,"City of Charlottesville"
"1400 MELBOURNE RD, Charlottesville, VA",38.052489,-78.475702,1,rooftop,1400,"Melbourne Rd",,,Charlottesville,VA,"Albemarle County",22902,US,"City of Charlottesville"
"900 EMMET ST N, Charlottesville, VA",38.048623,-78.503011,1,rooftop,900,"Emmet St N",,,Charlottesville,VA,"Albemarle County",22903,US,"City of Charlottesville"
"2500 JEFFERSON PARK AVE, Charlottesville, VA",38.020243,-78.514161,1,rooftop,2500,"Jefferson Park Ave",,,Charlottesville,VA,"Albemarle County",22903,US,"City of Charlottesville"
"1100 EMMET ST N, Charlottesville, VA",38.051498,-78.5002,1,range_interpolation,1100,"Emmet St N",,,Charlottesville,VA,"Albemarle County",22903,US,"TIGER/Line® dataset from the US Census Bureau"
"800 W MAIN ST, Charlottesville, VA",38.031848,-78.490814,1,range_interpolation,800,"W Main St",,,Charlottesville,VA,"Albemarle County",22903,US,"TIGER/Line® dataset from the US Census Bureau"
"500 HARRIS RD, Charlottesville, VA",38.014946,-78.503703,1,range_interpolation,500,"Harris Rd",,,Charlottesville,VA,"Albemarle County",22903,US,"TIGER/Line® dataset from the US Census Bureau"
"1100 GORDON AVE, Charlottesville, VA",38.03813,-78.494226,1,rooftop,1100,"Gordon Ave",,,Charlottesville,VA,"Albemarle County",22903,US,"City of Charlottesville"
"300 PARK ST, Charlottesville, VA",38.031487,-78.476976,1,rooftop,300,"Park St",,,Charlottesville,VA,"Albemarle County",22902,US,"Virginia Geographic Information Network (VGIN)"
"1300 CARLTON AVE, Charlottesville, VA",38.022084,-78.469217,1,rooftop,1300,"Carlton Ave",,,Charlottesville,VA,"Albemarle County",22902,US,"City of Charlottesville"
"200 W MARKET ST, Charlottesville, VA",38.031667,-78.482066,1,rooftop,200,"W Market St",,,Charlottesville,VA,"Albemarle County",22902,US,"City of Charlottesville"
"200 8TH ST NW, Charlottesville, VA",38.033259,-78.490241,1,range_interpolation,200,"8th St NW",,,Charlottesville,VA,"Albemarle County",22903,US,"TIGER/Line® dataset from the US Census Bureau"
"1600 MADISON AVE, Charlottesville, VA",38.04177,-78.486691,1,range_interpolation,1600,"Madison Ave",,,Charlottesville,VA,"Albemarle County",22903,US,"TIGER/Line® dataset from the US Census Bureau"
"200 CREAM ST, Charlottesville, VA",38.032189,-78.489946,1,range_interpolation,200,"Cream St",,,Charlottesville,VA,"Albemarle County",22903,US,"TIGER/Line® dataset from the US Census Bureau"
"400 ELLIOTT AVE, Charlottesville, VA",38.022593,-78.48463,1,range_interpolation,400,"Elliott Ave",,,Charlottesville,VA,"Albemarle County",22902,US,"TIGER/Line® dataset from the US Census Bureau"
"2300 CRESTMONT AVE, Charlottesville, VA",38.02078,-78.510129,1,range_interpolation,2300,"Crestmont Ave",,,Charlottesville,VA,"Albemarle County",22903,US,"TIGER/Line® dataset from the US Census Bureau"
"700 1ST ST, Charlottesville, VA",38.02649,-78.484062,0.8,range_interpolation,700,"1st St S",,,Charlottesville,VA,"Albemarle County",22902,US,"TIGER/Line® dataset from the US Census Bureau"
"2000 MINOR RD, Charlottesville, VA",38.039484,-78.511132,1,range_interpolation,2000,"Minor Rd",,,Charlottesville,VA,"Albemarle County",22903,US,"TIGER/Line® dataset from the US Census Bureau"
"1300 RIVERDALE DR, Charlottesville, VA",38.035166,-78.461418,1,range_interpolation,1300,"Riverdale Dr",,,Charlottesville,VA,"Albemarle County",22902,US,"TIGER/Line® dataset from the US Census Bureau"
"300 MEADE AVE, Charlottesville, VA",38.027733,-78.465583,1,rooftop,300,"Meade Ave",,,Charlottesville,VA,"Albemarle County",22902,US,"City of Charlottesville"
"300 15TH ST NW, Charlottesville, VA",38.036158,-78.499392,1,range_interpolation,300,"15th St NW",,,Charlottesville,VA,"Albemarle County",22903,US,"TIGER/Line® dataset from the US Census Bureau"
"600 E MARKET ST, Charlottesville, VA",38.030267,-78.477549,1,range_interpolation,600,"Market St E",,,Charlottesville,VA,"Albemarle County",22902,US,"TIGER/Line® dataset from the US Census Bureau"
"800 W MAIN ST, Charlottesville, VA",38.031848,-78.490814,1,range_interpolation,800,"W Main St",,,Charlottesville,VA,"Albemarle County",22903,US,"TIGER/Line® dataset from the US Census Bureau"
"1100 EMMET ST N, Charlottesville, VA",38.051498,-78.5002,1,range_interpolation,1100,"Emmet St N",,,Charlottesville,VA,"Albemarle County",22903,US,"TIGER/Line® dataset from the US Census Bureau"
"500 HARRIS RD, Charlottesville, VA",38.014946,-78.503703,1,range_interpolation,500,"Harris Rd",,,Charlottesville,VA,"Albemarle County",22903,US,"TIGER/Line® dataset from the US Census Bureau"
"700 12TH ST NW, Charlottesville, VA",38.040451,-78.493761,1,range_interpolation,700,"12th St NW",,,Charlottesville,VA,"Albemarle County",22903,US,"TIGER/Line® dataset from the US Census Bureau"
"500 E JEFFERSON ST, Charlottesville, VA",38.031613,-78.478148,0.7,range_interpolation,500,"Jefferson St",,,Charlottesville,VA,"Albemarle County",22902,US,"TIGER/Line® dataset from the US Census Bureau"
"600 HINTON AVE, Charlottesville, VA",38.026355,-78.479577,1,rooftop,600,"Hinton Ave",,,Charlottesville,VA,"Albemarle County",22902,US,"City of Charlottesville"
"900 FOREST ST, Charlottesville, VA",38.038169,-78.485496,1,range_interpolation,900,"Forest St",,,Charlottesville,VA,"Albemarle County",22903,US,"TIGER/Line® dataset from the US Census Bureau"
"1200 CARLTON AVE, Charlottesville, VA",38.023408,-78.471574,1,rooftop,1200,"Carlton Ave",,,Charlottesville,VA,"Albemarle County",22902,US,"City of Charlottesville"
"200 E MAIN ST, Charlottesville, VA",38.030391,-78.480746,1,range_interpolation,200,"E Main St",,,Charlottesville,VA,"Albemarle County",22902,US,"TIGER/Line® dataset from the US Census Bureau"
"700 PROSPECT AVE, Charlottesville, VA",38.024646,-78.494399,1,rooftop,700,"Prospect Ave",,,Charlottesville,VA,"Albemarle County",22903,US,"Virginia Geographic Information Network (VGIN)"
"1600 TRAILRIDGE RD, Charlottesville, VA",38.021062,-78.503347,1,rooftop,1600,"Trailridge Rd",,,Charlottesville,VA,"Albemarle County",22903,US,"City of Charlottesville"
"1000 PEARTREE LN, Charlottesville, VA",38.043208,-78.459746,1,range_interpolation,1000,"Peartree Ln",,,Charlottesville,VA,"Albemarle County",22901,US,"TIGER/Line® dataset from the US Census Bureau"
"200 5TH ST SW, Charlottesville, VA",38.030475,-78.488002,1,range_interpolation,200,"5th St SW",,,Charlottesville,VA,"Albemarle County",22903,US,"TIGER/Line® dataset from the US Census Bureau"
"100 LANKFORD AVE, Charlottesville, VA",38.021191,-78.487098,1,rooftop,100,"Lankford Ave",,,Charlottesville,VA,"Albemarle County",22902,US,"City of Charlottesville"
"200 1ST ST S, Charlottesville, VA",38.030191,-78.481861,1,range_interpolation,200,"1st St S",,,Charlottesville,VA,"Albemarle County",22902,US,"TIGER/Line® dataset from the US Census Bureau"
"2400 FONTAINE AVE, Charlottesville, VA",38.025784,-78.518964,1,rooftop,2400,"Fontaine Ave",,,Charlottesville,VA,"Albemarle County",22901,US,"City of Charlottesville"
"1800 BLUE RIDGE RD, Charlottesville, VA",38.050036,-78.49212,0.71,nearest_rooftop_match,1803,"Blue Ridge Rd",,,Charlottesville,VA,"Albemarle County",22903,US,"Virginia Geographic Information Network (VGIN)"
"1200 WERTLAND ST, Charlottesville, VA",38.034171,-78.496505,1,rooftop,1200,"Wertland St",,,Charlottesville,VA,"Albemarle County",22903,US,"Virginia Geographic Information Network (VGIN)"
"500 NASSAU ST, Charlottesville, VA",38.020085,-78.465966,1,rooftop,500,"Nassau St",,,Charlottesville,VA,"Albemarle County",22902,US,"City of Charlottesville"
"100 4TH ST NE, Charlottesville, VA",38.030227,-78.479008,1,rooftop,100,"4th St NE",,,Charlottesville,VA,"Albemarle County",22902,US,"Virginia Geographic Information Network (VGIN)"
"NA GRADY AVE, Charlottesville, VA",38.026588,-78.48045,1,place,,,,,Charlottesville,VA,"Charlottesville city",22902,US,"TIGER/Line® dataset from the US Census Bureau"
"2300 FONTAINE AVE, Charlottesville, VA",38.025595,-78.516645,1,rooftop,2300,"Fontaine Ave",,,Charlottesville,VA,"Albemarle County",22901,US,"City of Charlottesville"
"600 E MARKET ST, Charlottesville, VA",38.030267,-78.477549,1,range_interpolation,600,"Market St E",,,Charlottesville,VA,"Albemarle County",22902,US,"TIGER/Line® dataset from the US Census Bureau"
"1100 EMMET ST N, Charlottesville, VA",38.051498,-78.5002,1,range_interpolation,1100,"Emmet St N",,,Charlottesville,VA,"Albemarle County",22903,US,"TIGER/Line® dataset from the US Census Bureau"
"NA PARKWAY ST / PARK ST, Charlottesville, VA",38.026588,-78.48045,1,place,,,,,Charlottesville,VA,"Charlottesville city",22902,US,"TIGER/Line® dataset from the US Census Bureau"
"2400 FONTAINE AVE, Charlottesville, VA",38.025784,-78.518964,1,rooftop,2400,"Fontaine Ave",,,Charlottesville,VA,"Albemarle County",22901,US,"City of Charlottesville"
"700 10TH ST NW, Charlottesville, VA",38.039772,-78.490308,1,range_interpolation,700,"10th St NW",,,Charlottesville,VA,"Albemarle County",22903,US,"TIGER/Line® dataset from the US Census Bureau"
"100 W MAIN ST, Charlottesville, VA",38.030482,-78.481848,1,rooftop,100,"W Main St",,,Charlottesville,VA,"Albemarle County",22902,US,"Virginia Geographic Information Network (VGIN)"
"100 HARRIS RD, Charlottesville, VA",38.014969,-78.510651,1,rooftop,100,"Harris Rd",,,Charlottesville,VA,"Albemarle County",22903,US,"City of Charlottesville"
"200 RIDGE ST, Charlottesville, VA",38.029765,-78.485528,1,range_interpolation,200,"State Rte 631",,,Charlottesville,VA,"Albemarle County",22902,US,"TIGER/Line® dataset from the US Census Bureau"
"100 HARRIS RD, Charlottesville, VA",38.014969,-78.510651,1,rooftop,100,"Harris Rd",,,Charlottesville,VA,"Albemarle County",22903,US,"City of Charlottesville"
"1500 GRADY AVE, Charlottesville, VA",38.040356,-78.497622,1,rooftop,1500,"Grady Ave",,,Charlottesville,VA,"Albemarle County",22903,US,"City of Charlottesville"
"300 15TH ST NW, Charlottesville, VA",38.036158,-78.499392,1,range_interpolation,300,"15th St NW",,,Charlottesville,VA,"Albemarle County",22903,US,"TIGER/Line® dataset from the US Census Bureau"
"2000 IVY RD, Charlottesville, VA",38.041645,-78.509653,1,range_interpolation,2000,"Ivy Rd",,,Charlottesville,VA,"Albemarle County",22903,US,"TIGER/Line® dataset from the US Census Bureau"
"1100 PRESTON AVE, Charlottesville, VA",38.042033,-78.491926,1,rooftop,1100,"Preston Ave",,,Charlottesville,VA,"Albemarle County",22903,US,"City of Charlottesville"
"800 MAIN ST, Charlottesville, VA",38.031848,-78.490814,0.9,range_interpolation,800,"W Main St",,,Charlottesville,VA,"Albemarle County",22903,US,"TIGER/Line® dataset from the US Census Bureau"
"200 E MAIN ST, Charlottesville, VA",38.030391,-78.480746,1,range_interpolation,200,"E Main St",,,Charlottesville,VA,"Albemarle County",22902,US,"TIGER/Line® dataset from the US Census Bureau"
"300 11TH ST NW, Charlottesville, VA",38.035696,-78.494993,1,range_interpolation,300,"11th St NW",,,Charlottesville,VA,"Albemarle County",22903,US,"TIGER/Line® dataset from the US Census Bureau"
"1000 ALTAVISTA AVE, Charlottesville, VA",38.018098,-78.477234,1,rooftop,1000,"Altavista Ave",,,Charlottesville,VA,"Albemarle County",22902,US,"City of Charlottesville"
"400 GARRETT ST, Charlottesville, VA",38.027754,-78.481638,1,rooftop,400,"Garrett St",,,Charlottesville,VA,"Albemarle County",22902,US,"Virginia Geographic Information Network (VGIN)"
"1200 EMMET ST N, Charlottesville, VA",38.052819,-78.498406,1,rooftop,1200,"Emmet St N",,,Charlottesville,VA,"Albemarle County",22903,US,"City of Charlottesville"
"100 ELLIEWOOD AVE, Charlottesville, VA",38.03573,-78.500873,1,rooftop,100,"Elliewood Ave",,,Charlottesville,VA,"Albemarle County",22903,US,"Virginia Geographic Information Network (VGIN)"
"800 E MARKET ST, Charlottesville, VA",38.02958,-78.476031,1,rooftop,800,"E Market St",,,Charlottesville,VA,"Albemarle County",22902,US,"Virginia Geographic Information Network (VGIN)"
"800 EMMET ST, Charlottesville, VA",38.047721,-78.503766,0.9,range_interpolation,800,"Emmet St N",,,Charlottesville,VA,"Albemarle County",22903,US,"TIGER/Line® dataset from the US Census Bureau"
"600 MASON ST, Charlottesville, VA",38.019716,-78.465579,1,rooftop,600,"Mason St",,,Charlottesville,VA,"Albemarle County",22902,US,"City of Charlottesville"
"600 MASON ST, Charlottesville, VA",38.019716,-78.465579,1,rooftop,600,"Mason St",,,Charlottesville,VA,"Albemarle County",22902,US,"City of Charlottesville"
"1900 EMMET ST N, Charlottesville, VA",38.060855,-78.492224,1,range_interpolation,1900,"Emmet St N",,,Charlottesville,VA,"Albemarle County",22903,US,"TIGER/Line® dataset from the US Census Bureau"
"700 MADISON AVE, Charlottesville, VA",38.041161,-78.495152,1,range_interpolation,700,"Madison Ave",,,Charlottesville,VA,"Albemarle County",22903,US,"TIGER/Line® dataset from the US Census Bureau"
"NA DICE ST @ 5TH ST, Charlottesville, VA",38.026588,-78.48045,1,place,,,,,Charlottesville,VA,"Charlottesville city",22902,US,"TIGER/Line® dataset from the US Census Bureau"
"200 RIDGE ST, Charlottesville, VA",38.029765,-78.485528,1,range_interpolation,200,"State Rte 631",,,Charlottesville,VA,"Albemarle County",22902,US,"TIGER/Line® dataset from the US Census Bureau"
"1300 LONG ST, Charlottesville, VA",38.035319,-78.4627,1,rooftop,1300,"Long St",,,Charlottesville,VA,"Albemarle County",22901,US,"City of Charlottesville"
"700 RIDGE ST, Charlottesville, VA",38.024669,-78.48988,1,range_interpolation,700,"Ridge St",,,Charlottesville,VA,"Albemarle County",22902,US,"TIGER/Line® dataset from the US Census Bureau"
"1100 5TH ST SW, Charlottesville, VA",38.014495,-78.50005,1,range_interpolation,1100,"5th St SW",,,Charlottesville,VA,"Albemarle County",22902,US,"TIGER/Line® dataset from the US Census Bureau"
"400 EARHART ST, Charlottesville, VA",38.056924,-78.49862,0.8,nearest_rooftop_match,408,"Earhart St",,,Charlottesville,VA,"Albemarle County",22903,US,"Virginia Geographic Information Network (VGIN)"
"300 SPRUCE ST, Charlottesville, VA",38.025191,-78.471217,1,range_interpolation,300,"Spruce St",,,Charlottesville,VA,"Albemarle County",22902,US,"TIGER/Line® dataset from the US Census Bureau"
"1200 WERTLAND ST, Charlottesville, VA",38.034171,-78.496505,1,rooftop,1200,"Wertland St",,,Charlottesville,VA,"Albemarle County",22903,US,"Virginia Geographic Information Network (VGIN)"
"2500 JEFFERSON PARK AVE, Charlottesville, VA",38.020243,-78.514161,1,rooftop,2500,"Jefferson Park Ave",,,Charlottesville,VA,"Albemarle County",22903,US,"City of Charlottesville"
"200 SHAMROCK RD, Charlottesville, VA",38.026783,-78.510448,1,range_interpolation,200,"Shamrock Rd",,,Charlottesville,VA,"Albemarle County",22903,US,"TIGER/Line® dataset from the US Census Bureau"
"1200 EMMET ST N, Charlottesville, VA",38.052819,-78.498406,1,rooftop,1200,"Emmet St N",,,Charlottesville,VA,"Albemarle County",22903,US,"City of Charlottesville"
"300 RIVERSIDE AVE, Charlottesville, VA",38.02387,-78.455313,1,rooftop,300,"Riverside Ave",,,Charlottesville,VA,"Albemarle County",22902,US,"City of Charlottesville"
"600 E MARKET ST, Charlottesville, VA",38.030267,-78.477549,1,range_interpolation,600,"Market St E",,,Charlottesville,VA,"Albemarle County",22902,US,"TIGER/Line® dataset from the US Census Bureau"
"1200 CEDARS CT, Charlottesville, VA",38.055196,-78.5015,1,range_interpolation,1200,"Cedars Ct",,,Charlottesville,VA,"Albemarle County",22903,US,"TIGER/Line® dataset from the US Census Bureau"
"100 1ST ST N, Charlottesville, VA",38.030978,-78.481312,1,rooftop,100,"1st St N",,,Charlottesville,VA,"Albemarle County",22902,US,"Virginia Geographic Information Network (VGIN)"
"400 4TH ST NW, Charlottesville, VA",38.033577,-78.485453,1,range_interpolation,400,"4th St NW",,,Charlottesville,VA,"Albemarle County",22903,US,"TIGER/Line® dataset from the US Census Bureau"
"600 UNIVERSITY WAY, Charlottesville, VA",38.04308,-78.503292,0.5,range_interpolation,600,"University Cir",,,Charlottesville,VA,"Albemarle County",22903,US,"TIGER/Line® dataset from the US Census Bureau"
"100 UNIVERSITY CIR, Charlottesville, VA",38.04355,-78.503401,1,range_interpolation,100,"University Cir",,,Charlottesville,VA,"Albemarle County",22903,US,"TIGER/Line® dataset from the US Census Bureau"
"700 MCINTIRE RD, Charlottesville, VA",38.038484,-78.477766,1,rooftop,700,"McIntire Rd",,,Charlottesville,VA,"Albemarle County",22902,US,"City of Charlottesville"
"NA AVON ST / ELLIOTT AVE, Charlottesville, VA",38.026588,-78.48045,1,place,,,,,Charlottesville,VA,"Charlottesville city",22902,US,"TIGER/Line® dataset from the US Census Bureau"
"900 EMMET ST N, Charlottesville, VA",38.048623,-78.503011,1,rooftop,900,"Emmet St N",,,Charlottesville,VA,"Albemarle County",22903,US,"City of Charlottesville"
"200 MONTE VISTA AVE, Charlottesville, VA",38.01627,-78.51373,1,rooftop,200,"Monte Vista Ave",,,Charlottesville,VA,"Albemarle County",22903,US,"City of Charlottesville"
"400 MONROE LN, Charlottesville, VA",38.031716,-78.50267,1,rooftop,400,"Monroe Ln",,,Charlottesville,VA,"Albemarle County",22903,US,"Virginia Geographic Information Network (VGIN)"
"1000 WERTLAND ST, Charlottesville, VA",38.033911,-78.494229,1,rooftop,1000,"Wertland St",,,Charlottesville,VA,"Albemarle County",22903,US,"City of Charlottesville"
"600 E MARKET ST, Charlottesville, VA",38.030267,-78.477549,1,range_interpolation,600,"Market St E",,,Charlottesville,VA,"Albemarle County",22902,US,"TIGER/Line® dataset from the US Census Bureau"
"200 DOUGLAS AVE, Charlottesville, VA",38.026343,-78.472905,1,rooftop,200,"Douglas Ave",,,Charlottesville,VA,"Albemarle County",22902,US,"City of Charlottesville"
"2500 JEFFERSON PARK AVE, Charlottesville, VA",38.020243,-78.514161,1,rooftop,2500,"Jefferson Park Ave",,,Charlottesville,VA,"Albemarle County",22903,US,"City of Charlottesville"
"1200 JOHN ST, Charlottesville, VA",38.036463,-78.496095,1,range_interpolation,1200,"John St",,,Charlottesville,VA,"Albemarle County",22903,US,"TIGER/Line® dataset from the US Census Bureau"
"1000 CHERRY AVE, Charlottesville, VA",38.026722,-78.497519,1,rooftop,1000,"Cherry Ave",,,Charlottesville,VA,"Albemarle County",22903,US,"City of Charlottesville"
"1300 CARLTON AVE, Charlottesville, VA",38.022084,-78.469217,1,rooftop,1300,"Carlton Ave",,,Charlottesville,VA,"Albemarle County",22902,US,"City of Charlottesville"
"1000 E HIGH ST, Charlottesville, VA",38.031399,-78.470748,1,rooftop,1000,"E High St",,,Charlottesville,VA,"Albemarle County",22902,US,"City of Charlottesville"
"800 ST CHARLES AVE, Charlottesville, VA",38.038928,-78.467584,1,range_interpolation,800,"St Charles Ave",,,Charlottesville,VA,"Albemarle County",22902,US,"TIGER/Line® dataset from the US Census Bureau"
"2400 HYDRAULIC RD, Charlottesville, VA",38.065238,-78.49569,0.72,nearest_rooftop_match,2401,"Hydraulic Rd",,,Charlottesville,VA,"Albemarle County",22901,US,"Virginia Geographic Information Network (VGIN)"
"500 CLEVELAND AVE, Charlottesville, VA",38.017072,-78.498455,1,rooftop,500,"Cleveland Ave",,,Charlottesville,VA,"Albemarle County",22903,US,"Virginia Geographic Information Network (VGIN)"
"600 NORTH AVE, Charlottesville, VA",38.043854,-78.470276,1,range_interpolation,600,"North Ave",,,Charlottesville,VA,"Albemarle County",22901,US,"TIGER/Line® dataset from the US Census Bureau"
"1500 VINE ST, Charlottesville, VA",38.01909,-78.466963,1,range_interpolation,1500,"Vine St",,,Charlottesville,VA,"Albemarle County",22902,US,"TIGER/Line® dataset from the US Census Bureau"
"500 CLEVELAND AVE, Charlottesville, VA",38.017072,-78.498455,1,rooftop,500,"Cleveland Ave",,,Charlottesville,VA,"Albemarle County",22903,US,"Virginia Geographic Information Network (VGIN)"
"1400 MELBOURNE RD, Charlottesville, VA",38.052489,-78.475702,1,rooftop,1400,"Melbourne Rd",,,Charlottesville,VA,"Albemarle County",22902,US,"City of Charlottesville"
"1100 E JEFFERSON ST, Charlottesville, VA",38.029122,-78.471334,1,rooftop,1100,"E Jefferson St",,,Charlottesville,VA,"Albemarle County",22902,US,"City of Charlottesville"
"600 BOLLING AVE, Charlottesville, VA",38.024116,-78.481209,1,rooftop,600,"Bolling Ave",,,Charlottesville,VA,"Albemarle County",22902,US,"City of Charlottesville"
"800 HARDY DR, Charlottesville, VA",38.033559,-78.490241,1,range_interpolation,800,"Hardy Dr",,,Charlottesville,VA,"Albemarle County",22903,US,"TIGER/Line® dataset from the US Census Bureau"
"1100 EMMET ST N, Charlottesville, VA",38.051498,-78.5002,1,range_interpolation,1100,"Emmet St N",,,Charlottesville,VA,"Albemarle County",22903,US,"TIGER/Line® dataset from the US Census Bureau"
"900 RAYMOND RD, Charlottesville, VA",38.016886,-78.493051,1,range_interpolation,900,"Raymond Rd",,,Charlottesville,VA,"Albemarle County",22902,US,"TIGER/Line® dataset from the US Census Bureau"
"1600 JEFFERSON PARK AVE, Charlottesville, VA",38.03177,-78.507397,1,rooftop,1600,"Jefferson Park Ave",,,Charlottesville,VA,"Albemarle County",22903,US,"City of Charlottesville"
"500 7 1/2 ST SW, Charlottesville, VA",38.027098,-78.49316,1,rooftop,500,"7 1/2 St SW",,,Charlottesville,VA,"Albemarle County",22903,US,"City of Charlottesville"
"900 2ND ST SE, Charlottesville, VA",38.037614,-78.476349,0.8,rooftop,900,"2nd St NE",,,Charlottesville,VA,"Albemarle County",22902,US,"City of Charlottesville"
"500 W MAIN ST, Charlottesville, VA",38.030788,-78.487892,1,rooftop,500,"W Main St",,,Charlottesville,VA,"Albemarle County",22903,US,"Virginia Geographic Information Network (VGIN)"
"400 EMMET ST N, Charlottesville, VA",38.043885,-78.504335,1,rooftop,400,"Emmet St N",,,Charlottesville,VA,"Albemarle County",22901,US,"City of Charlottesville"
"600 E MARKET ST, Charlottesville, VA",38.030267,-78.477549,1,range_interpolation,600,"Market St E",,,Charlottesville,VA,"Albemarle County",22902,US,"TIGER/Line® dataset from the US Census Bureau"
"100 14TH ST NW, Charlottesville, VA",38.034122,-78.499326,1,rooftop,100,"14th St NW",,,Charlottesville,VA,"Albemarle County",22903,US,"Virginia Geographic Information Network (VGIN)"
"500 HARRIS RD, Charlottesville, VA",38.014946,-78.503703,1,range_interpolation,500,"Harris Rd",,,Charlottesville,VA,"Albemarle County",22903,US,"TIGER/Line® dataset from the US Census Bureau"
"2300 FONTAINE AVE, Charlottesville, VA",38.025595,-78.516645,1,rooftop,2300,"Fontaine Ave",,,Charlottesville,VA,"Albemarle County",22901,US,"City of Charlottesville"
"1200 AGNESE ST, Charlottesville, VA",38.046235,-78.462147,1,range_interpolation,1200,"Agnese St",,,Charlottesville,VA,"Albemarle County",22901,US,"TIGER/Line® dataset from the US Census Bureau"
"1100 PARKER PL, Charlottesville, VA",38.045884,-78.489931,1,range_interpolation,1100,"Parker Pl",,,Charlottesville,VA,"Albemarle County",22903,US,"TIGER/Line® dataset from the US Census Bureau"
"1200 HARRIS ST, Charlottesville, VA",38.040323,-78.477686,1,range_interpolation,1200,"Harris St",,,Charlottesville,VA,"Albemarle County",22903,US,"TIGER/Line® dataset from the US Census Bureau"
"400 13TH ST NW, Charlottesville, VA",38.036718,-78.496805,1,range_interpolation,400,"13th St NW",,,Charlottesville,VA,"Albemarle County",22903,US,"TIGER/Line® dataset from the US Census Bureau"
"300 CAROLINE AVE, Charlottesville, VA",38.029103,-78.465725,1,range_interpolation,300,"Caroline Ave",,,Charlottesville,VA,"Albemarle County",22902,US,"TIGER/Line® dataset from the US Census Bureau"
"1100 MERIWETHER ST, Charlottesville, VA",38.030915,-78.469021,1,range_interpolation,1100,"Meriwether St",,,Charlottesville,VA,"Albemarle County",22902,US,"TIGER/Line® dataset from the US Census Bureau"
"800 W MAIN ST, Charlottesville, VA",38.031848,-78.490814,1,range_interpolation,800,"W Main St",,,Charlottesville,VA,"Albemarle County",22903,US,"TIGER/Line® dataset from the US Census Bureau"
"800 HARDY DR, Charlottesville, VA",38.033559,-78.490241,1,range_interpolation,800,"Hardy Dr",,,Charlottesville,VA,"Albemarle County",22903,US,"TIGER/Line® dataset from the US Census Bureau"
"500 CLEVELAND AVE, Charlottesville, VA",38.017072,-78.498455,1,rooftop,500,"Cleveland Ave",,,Charlottesville,VA,"Albemarle County",22903,US,"Virginia Geographic Information Network (VGIN)"
"500 CHERRY AVE, Charlottesville, VA",38.02629,-78.491051,1,rooftop,500,"Cherry Ave",,,Charlottesville,VA,"Albemarle County",22903,US,"City of Charlottesville"
"100 THOMAS DR, Charlottesville, VA",38.02574,-78.507609,1,range_interpolation,100,"Thomas Dr",,,Charlottesville,VA,"Albemarle County",22903,US,"TIGER/Line® dataset from the US Census Bureau"
"500 HARRIS RD, Charlottesville, VA",38.014946,-78.503703,1,range_interpolation,500,"Harris Rd",,,Charlottesville,VA,"Albemarle County",22903,US,"TIGER/Line® dataset from the US Census Bureau"
"900 MONTICELLO AVE, Charlottesville, VA",38.02264,-78.475923,1,rooftop,900,"Monticello Ave",,,Charlottesville,VA,"Albemarle County",22901,US,"City of Charlottesville"
"1600 MONTICELLO RD, Charlottesville, VA",38.017364,-78.472936,1,rooftop,1600,"Monticello Rd",,,Charlottesville,VA,"Albemarle County",22902,US,"City of Charlottesville"
"1800 HYDRAULIC RD, Charlottesville, VA",38.060222,-78.490328,1,range_interpolation,1800,"Hydraulic Rd",,,Charlottesville,VA,"Albemarle County",22901,US,"TIGER/Line® dataset from the US Census Bureau"
"900 SOMERSET CT, Charlottesville, VA",38.073922,-78.469117,1,range_interpolation,900,"Somerset Ct",,,Charlottesville,VA,"Albemarle County",22901,US,"TIGER/Line® dataset from the US Census Bureau"
"500 E MAIN ST, Charlottesville, VA",38.030691,-78.480746,1,range_interpolation,500,"E Main St",,,Charlottesville,VA,"Albemarle County",22902,US,"TIGER/Line® dataset from the US Census Bureau"
"700 HARRIS ST, Charlottesville, VA",38.03575,-78.484068,1,rooftop,700,"Harris St",,,Charlottesville,VA,"Albemarle County",22903,US,"City of Charlottesville"
"400 GARRETT ST, Charlottesville, VA",38.027754,-78.481638,1,rooftop,400,"Garrett St",,,Charlottesville,VA,"Albemarle County",22902,US,"Virginia Geographic Information Network (VGIN)"
"1000 LINDEN AVE, Charlottesville, VA",38.014407,-78.470484,1,rooftop,1000,"Linden Ave",,,Charlottesville,VA,"Albemarle County",22902,US,"City of Charlottesville"
"1800 EMMET ST N, Charlottesville, VA",38.059769,-78.493071,1,range_interpolation,1800,"Emmet St N",,,Charlottesville,VA,"Albemarle County",22903,US,"TIGER/Line® dataset from the US Census Bureau"
"100 3RD ST SE, Charlottesville, VA",38.030472,-78.479998,1,range_interpolation,100,"3rd St SE",,,Charlottesville,VA,"Albemarle County",22902,US,"TIGER/Line® dataset from the US Census Bureau"
"800 HARDY DR, Charlottesville, VA",38.033559,-78.490241,1,range_interpolation,800,"Hardy Dr",,,Charlottesville,VA,"Albemarle County",22903,US,"TIGER/Line® dataset from the US Census Bureau"
"500 ROUGEMONT AVE, Charlottesville, VA",38.01793,-78.488354,1,rooftop,500,"Rougemont Ave",,,Charlottesville,VA,"Albemarle County",22902,US,"City of Charlottesville"
"500 W MAIN ST, Charlottesville, VA",38.030788,-78.487892,1,rooftop,500,"W Main St",,,Charlottesville,VA,"Albemarle County",22903,US,"Virginia Geographic Information Network (VGIN)"
"100 W MARKET ST, Charlottesville, VA",38.031682,-78.481145,0.8,range_interpolation,100,"Market St",,,Charlottesville,VA,"Albemarle County",22902,US,"TIGER/Line® dataset from the US Census Bureau"
"100 MINOR COURT LN, Charlottesville, VA",38.034639,-78.500517,1,range_interpolation,100,"Minor Court Ln",,,Charlottesville,VA,"Albemarle County",22903,US,"TIGER/Line® dataset from the US Census Bureau"
"500 W MAIN ST, Charlottesville, VA",38.030788,-78.487892,1,rooftop,500,"W Main St",,,Charlottesville,VA,"Albemarle County",22903,US,"Virginia Geographic Information Network (VGIN)"
"1400 RUGBY AVE, Charlottesville, VA",38.044705,-78.480152,1,range_interpolation,1400,"Rugby Ave",,,Charlottesville,VA,"Albemarle County",22903,US,"TIGER/Line® dataset from the US Census Bureau"
"200 DOUGLAS AVE, Charlottesville, VA",38.026343,-78.472905,1,rooftop,200,"Douglas Ave",,,Charlottesville,VA,"Albemarle County",22902,US,"City of Charlottesville"
"300 CARLTON RD, Charlottesville, VA",38.022432,-78.469845,1,rooftop,300,"Carlton Rd",,,Charlottesville,VA,"Albemarle County",22902,US,"City of Charlottesville"
"400 E MAIN ST, Charlottesville, VA",38.029803,-78.479272,1,rooftop,400,"E Main St",,,Charlottesville,VA,"Albemarle County",22902,US,"City of Charlottesville"
"700 ORANGEDALE AVE, Charlottesville, VA",38.024675,-78.495376,1,rooftop,700,"Orangedale Ave",,,Charlottesville,VA,"Albemarle County",22903,US,"City of Charlottesville"
"1800 JEFFERSON PARK AVE, Charlottesville, VA",38.028293,-78.508006,1,rooftop,1800,"Jefferson Park Ave",,,Charlottesville,VA,"Albemarle County",22903,US,"City of Charlottesville"
"1800 LAMBETH LN, Charlottesville, VA",38.040558,-78.501247,1,range_interpolation,1800,"Lambeth Ln",,,Charlottesville,VA,"Albemarle County",22903,US,"TIGER/Line® dataset from the US Census Bureau"
"100 2ND ST SW, Charlottesville, VA",38.031193,-78.482244,1,range_interpolation,100,"2nd St SW",,,Charlottesville,VA,"Albemarle County",22902,US,"TIGER/Line® dataset from the US Census Bureau"
"600 BOLLING AVE, Charlottesville, VA",38.024116,-78.481209,1,rooftop,600,"Bolling Ave",,,Charlottesville,VA,"Albemarle County",22902,US,"City of Charlottesville"
"400 OAK ST, Charlottesville, VA",38.025895,-78.484016,1,range_interpolation,400,"Oak St",,,Charlottesville,VA,"Albemarle County",22902,US,"TIGER/Line® dataset from the US Census Bureau"
"200 W MAIN ST, Charlottesville, VA",38.030748,-78.482695,1,rooftop,200,"W Main St",,,Charlottesville,VA,"Albemarle County",22901,US,"City of Charlottesville"
"1500 BROAD AVE, Charlottesville, VA",38.024317,-78.504687,1,rooftop,1500,"Broad Ave",,,Charlottesville,VA,"Albemarle County",22903,US,"City of Charlottesville"
"200 W MAIN ST, Charlottesville, VA",38.030748,-78.482695,1,rooftop,200,"W Main St",,,Charlottesville,VA,"Albemarle County",22901,US,"City of Charlottesville"
"1700 HYDRAULIC RD, Charlottesville, VA",38.058532,-78.488855,1,range_interpolation,1700,"Hydraulic Rd",,,Charlottesville,VA,"Albemarle County",22901,US,"TIGER/Line® dataset from the US Census Bureau"
"500 12TH ST NW, Charlottesville, VA",38.038558,-78.494435,1,rooftop,500,"12th St NW",,,Charlottesville,VA,"Albemarle County",22903,US,"City of Charlottesville"
"1300 JOHN ST, Charlottesville, VA",38.036807,-78.497026,1,rooftop,1300,"John St",,,Charlottesville,VA,"Albemarle County",22903,US,"Virginia Geographic Information Network (VGIN)"
"1100 EMMET ST N, Charlottesville, VA",38.051498,-78.5002,1,range_interpolation,1100,"Emmet St N",,,Charlottesville,VA,"Albemarle County",22903,US,"TIGER/Line® dataset from the US Census Bureau"
"1400 UNIVERSITY AVE, Charlottesville, VA",38.033951,-78.49996,1,rooftop,1400,"University Ave",,,Charlottesville,VA,"Albemarle County",22903,US,Albemarle
"800 W MAIN ST, Charlottesville, VA",38.031848,-78.490814,1,range_interpolation,800,"W Main St",,,Charlottesville,VA,"Albemarle County",22903,US,"TIGER/Line® dataset from the US Census Bureau"
"1200 EMMET ST N, Charlottesville, VA",38.052819,-78.498406,1,rooftop,1200,"Emmet St N",,,Charlottesville,VA,"Albemarle County",22903,US,"City of Charlottesville"
"2000 STADIUM RD, Charlottesville, VA",38.02842,-78.514475,1,rooftop,2000,"Stadium Rd",,,Charlottesville,VA,"Albemarle County",22901,US,"City of Charlottesville"
"100 MADISON LN, Charlottesville, VA",38.036242,-78.502401,1,range_interpolation,100,"Madison Ln",,,Charlottesville,VA,"Albemarle County",22903,US,"TIGER/Line® dataset from the US Census Bureau"
"600 E WATER ST, Charlottesville, VA",38.028772,-78.477348,1,rooftop,600,"E Water St",,,Charlottesville,VA,"Albemarle County",22903,US,"City of Charlottesville"
"1100 5TH ST SW, Charlottesville, VA",38.014495,-78.50005,1,range_interpolation,1100,"5th St SW",,,Charlottesville,VA,"Albemarle County",22902,US,"TIGER/Line® dataset from the US Census Bureau"
"600 MCINTIRE RD, Charlottesville, VA",38.036748,-78.479032,1,rooftop,600,"McIntire Rd",,,Charlottesville,VA,"Albemarle County",22902,US,"City of Charlottesville"
"700 MADISON AVE, Charlottesville, VA",38.041161,-78.495152,1,range_interpolation,700,"Madison Ave",,,Charlottesville,VA,"Albemarle County",22903,US,"TIGER/Line® dataset from the US Census Bureau"
"100 ELLIEWOOD AVE, Charlottesville, VA",38.03573,-78.500873,1,rooftop,100,"Elliewood Ave",,,Charlottesville,VA,"Albemarle County",22903,US,"Virginia Geographic Information Network (VGIN)"
"500 2ND ST SE, Charlottesville, VA",38.03427,-78.478722,0.8,rooftop,500,"2nd St NE",,,Charlottesville,VA,"Albemarle County",22901,US,"City of Charlottesville"
"300 15TH ST NW, Charlottesville, VA",38.036158,-78.499392,1,range_interpolation,300,"15th St NW",,,Charlottesville,VA,"Albemarle County",22903,US,"TIGER/Line® dataset from the US Census Bureau"
"1200 WERTLAND ST, Charlottesville, VA",38.034171,-78.496505,1,rooftop,1200,"Wertland St",,,Charlottesville,VA,"Albemarle County",22903,US,"Virginia Geographic Information Network (VGIN)"
"1500 UNIVERSITY AVE, Charlottesville, VA",38.034988,-78.500296,0.72,nearest_rooftop_match,1501,"University Ave",,,Charlottesville,VA,"Albemarle County",22903,US,"Virginia Geographic Information Network (VGIN)"
"1800 MONTICELLO RD, Charlottesville, VA",38.015537,-78.472869,1,rooftop,1800,"Monticello Rd",,,Charlottesville,VA,"Albemarle County",22903,US,"City of Charlottesville"
"700 MADISON AVE, Charlottesville, VA",38.041161,-78.495152,1,range_interpolation,700,"Madison Ave",,,Charlottesville,VA,"Albemarle County",22903,US,"TIGER/Line® dataset from the US Census Bureau"
"2000 MICHIE DR, Charlottesville, VA",38.05877,-78.487974,1,rooftop,2000,"Michie Dr",,,Charlottesville,VA,"Albemarle County",22901,US,"City of Charlottesville"
"100 14TH ST NW, Charlottesville, VA",38.034122,-78.499326,1,rooftop,100,"14th St NW",,,Charlottesville,VA,"Albemarle County",22903,US,"Virginia Geographic Information Network (VGIN)"
"700 1ST ST S, Charlottesville, VA",38.02649,-78.484062,1,range_interpolation,700,"1st St S",,,Charlottesville,VA,"Albemarle County",22902,US,"TIGER/Line® dataset from the US Census Bureau"
"1400 EMMET ST N, Charlottesville, VA",38.055785,-78.496363,1,range_interpolation,1400,"Emmet St N",,,Charlottesville,VA,"Albemarle County",22903,US,"TIGER/Line® dataset from the US Census Bureau"
"1700 HYDRAULIC RD, Charlottesville, VA",38.058532,-78.488855,1,range_interpolation,1700,"Hydraulic Rd",,,Charlottesville,VA,"Albemarle County",22901,US,"TIGER/Line® dataset from the US Census Bureau"
"300 6TH ST SW, Charlottesville, VA",38.029435,-78.489618,1,range_interpolation,300,"6th St SW",,,Charlottesville,VA,"Albemarle County",22903,US,"TIGER/Line® dataset from the US Census Bureau"
"NA MINOR COURT LN / UNIVERSITY AVE, Charlottesville, VA",38.026588,-78.48045,1,place,,,,,Charlottesville,VA,"Charlottesville city",22902,US,"TIGER/Line® dataset from the US Census Bureau"
"1600 UNIVERSITY AVE, Charlottesville, VA",38.034497,-78.500062,0.9,range_interpolation,1600,"University Ave",,,Charlottesville,VA,"Albemarle County",22903,US,"TIGER/Line® dataset from the US Census Bureau"
"1500 UNIVERSITY AVE, Charlottesville, VA",38.034988,-78.500296,0.72,nearest_rooftop_match,1501,"University Ave",,,Charlottesville,VA,"Albemarle County",22903,US,"Virginia Geographic Information Network (VGIN)"
"100 CHANCELLOR ST, Charlottesville, VA",38.035846,-78.50148,1,range_interpolation,100,"Chancellor St",,,Charlottesville,VA,"Albemarle County",22903,US,"TIGER/Line® dataset from the US Census Bureau"
"2300 ANGUS RD, Charlottesville, VA",38.061269,-78.497998,1,rooftop,2300,"Angus Rd",,,Charlottesville,VA,"Albemarle County",22901,US,"City of Charlottesville"
"800 HARDY DR, Charlottesville, VA",38.033559,-78.490241,1,range_interpolation,800,"Hardy Dr",,,Charlottesville,VA,"Albemarle County",22903,US,"TIGER/Line® dataset from the US Census Bureau"
"500 MAIN ST, Charlottesville, VA",38.030788,-78.487892,0.9,rooftop,500,"W Main St",,,Charlottesville,VA,"Albemarle County",22903,US,"Virginia Geographic Information Network (VGIN)"
"NA STADIUM RD / PIEDMONT AVE N, Charlottesville, VA",38.026588,-78.48045,1,place,,,,,Charlottesville,VA,"Charlottesville city",22902,US,"TIGER/Line® dataset from the US Census Bureau"
"500 CLEVELAND AVE, Charlottesville, VA",38.017072,-78.498455,1,rooftop,500,"Cleveland Ave",,,Charlottesville,VA,"Albemarle County",22903,US,"Virginia Geographic Information Network (VGIN)"
"500 17TH ST NW, Charlottesville, VA",38.04023,-78.499922,1,range_interpolation,500,"17th St NW",,,Charlottesville,VA,"Albemarle County",22903,US,"TIGER/Line® dataset from the US Census Bureau"
"700 NALLE ST, Charlottesville, VA",38.029534,-78.491541,1,range_interpolation,700,"Nalle St",,,Charlottesville,VA,"Albemarle County",22903,US,"TIGER/Line® dataset from the US Census Bureau"
"1300 CARLTON AVE, Charlottesville, VA",38.022084,-78.469217,1,rooftop,1300,"Carlton Ave",,,Charlottesville,VA,"Albemarle County",22902,US,"City of Charlottesville"
"100 14TH ST NW, Charlottesville, VA",38.034122,-78.499326,1,rooftop,100,"14th St NW",,,Charlottesville,VA,"Albemarle County",22903,US,"Virginia Geographic Information Network (VGIN)"
"600 RAINIER RD, Charlottesville, VA",38.021309,-78.509393,1,rooftop,600,"Rainier Rd",,,Charlottesville,VA,"Albemarle County",22903,US,"City of Charlottesville"
"300 RIVERSIDE AVE, Charlottesville, VA",38.02387,-78.455313,1,rooftop,300,"Riverside Ave",,,Charlottesville,VA,"Albemarle County",22902,US,"City of Charlottesville"
"100 W JEFFERSON ST, Charlottesville, VA",38.032133,-78.481004,1,rooftop,100,"W Jefferson St",,,Charlottesville,VA,"Albemarle County",22902,US,"City of Charlottesville"
"2200 FONTAINE AVE, Charlottesville, VA",38.026076,-78.515987,1,range_interpolation,2200,"Fontaine Ave",,,Charlottesville,VA,"Albemarle County",22903,US,"TIGER/Line® dataset from the US Census Bureau"
"600 E MARKET ST, Charlottesville, VA",38.030267,-78.477549,1,range_interpolation,600,"Market St E",,,Charlottesville,VA,"Albemarle County",22902,US,"TIGER/Line® dataset from the US Census Bureau"
"NA 5TH ST SW / CLEVELAND AVE, Charlottesville, VA",38.025115,-78.490264,1,street_center,,"State Rte 631",,,Charlottesville,VA,"Albemarle County",22902,US,"TIGER/Line® dataset from the US Census Bureau"
"300 MONTICELLO RD, Charlottesville, VA",38.026882,-78.47693,1,range_interpolation,300,"Monticello Rd",,,Charlottesville,VA,"Albemarle County",22902,US,"TIGER/Line® dataset from the US Census Bureau"
"1300 EMMET ST, Charlottesville, VA",38.055387,-78.49651,1,rooftop,1300,"Emmet St",,,Charlottesville,VA,"Albemarle County",22903,US,"Virginia Geographic Information Network (VGIN)"
"700 GRAVES ST, Charlottesville, VA",38.026906,-78.476687,1,rooftop,700,"Graves St",,,Charlottesville,VA,"Albemarle County",22902,US,"City of Charlottesville"
"600 BOLLING AVE, Charlottesville, VA",38.024116,-78.481209,1,rooftop,600,"Bolling Ave",,,Charlottesville,VA,"Albemarle County",22902,US,"City of Charlottesville"
"1800 MARKET ST, Charlottesville, VA",38.022341,-78.457824,0.8,range_interpolation,1800,"Market St E",,,Charlottesville,VA,"Albemarle County",22902,US,"TIGER/Line® dataset from the US Census Bureau"
"100 E MAIN ST, Charlottesville, VA",38.030363,-78.481565,1,rooftop,100,"E Main St",,,Charlottesville,VA,"Albemarle County",22901,US,"City of Charlottesville"
"1900 EMMET ST N, Charlottesville, VA",38.060855,-78.492224,1,range_interpolation,1900,"Emmet St N",,,Charlottesville,VA,"Albemarle County",22903,US,"TIGER/Line® dataset from the US Census Bureau"
"100 WILSON CT, Charlottesville, VA",38.065924,-78.475782,1,rooftop,100,"Wilson Ct",,,Charlottesville,VA,"Albemarle County",22901,US,"City of Charlottesville"
"200 EMMET ST, Charlottesville, VA",38.040585,-78.506267,0.9,range_interpolation,200,"Emmet St N",,,Charlottesville,VA,"Albemarle County",22903,US,"TIGER/Line® dataset from the US Census Bureau"
"800 CHERRY AVE, Charlottesville, VA",38.028394,-78.4925,1,range_interpolation,800,"Cherry Ave",,,Charlottesville,VA,"Albemarle County",22903,US,"TIGER/Line® dataset from the US Census Bureau"
"600 E MARKET ST, Charlottesville, VA",38.030267,-78.477549,1,range_interpolation,600,"Market St E",,,Charlottesville,VA,"Albemarle County",22902,US,"TIGER/Line® dataset from the US Census Bureau"
"1300 CARLTON AVE, Charlottesville, VA",38.022084,-78.469217,1,rooftop,1300,"Carlton Ave",,,Charlottesville,VA,"Albemarle County",22902,US,"City of Charlottesville"
"600 E WATER ST, Charlottesville, VA",38.028772,-78.477348,1,rooftop,600,"E Water St",,,Charlottesville,VA,"Albemarle County",22903,US,"City of Charlottesville"
"400 1ST ST N, Charlottesville, VA",38.03286,-78.480509,1,range_interpolation,400,"1st St N",,,Charlottesville,VA,"Albemarle County",22902,US,"TIGER/Line® dataset from the US Census Bureau"
"1600 BRANDYWINE DR, Charlottesville, VA",38.057712,-78.488289,1,range_interpolation,1600,"Brandywine Dr",,,Charlottesville,VA,"Albemarle County",22901,US,"TIGER/Line® dataset from the US Census Bureau"
"100 ELLIEWOOD AVE, Charlottesville, VA",38.03573,-78.500873,1,rooftop,100,"Elliewood Ave",,,Charlottesville,VA,"Albemarle County",22903,US,"Virginia Geographic Information Network (VGIN)"
"300 CARLTON RD, Charlottesville, VA",38.022432,-78.469845,1,rooftop,300,"Carlton Rd",,,Charlottesville,VA,"Albemarle County",22902,US,"City of Charlottesville"
"1400 PEN PARK RD, Charlottesville, VA",38.04987,-78.451608,1,rooftop,1400,"Pen Park Rd",,,Charlottesville,VA,"Albemarle County",22901,US,"Virginia Geographic Information Network (VGIN)"
"1000 MONTROSE AVE, Charlottesville, VA",38.019566,-78.476072,1,rooftop,1000,"Montrose Ave",,,Charlottesville,VA,"Albemarle County",22902,US,"City of Charlottesville"
"500 1ST ST, Charlottesville, VA",38.026837,-78.483051,0.9,rooftop,500,"1st St S",,,Charlottesville,VA,"Albemarle County",22902,US,"City of Charlottesville"
"700 MAPLE ST, Charlottesville, VA",38.032453,-78.475436,1,range_interpolation,700,"Maple St",,,Charlottesville,VA,"Albemarle County",22902,US,"TIGER/Line® dataset from the US Census Bureau"
"1600 6TH ST SE, Charlottesville, VA",38.016682,-78.485939,1,rooftop,1600,"6th St SE",,,Charlottesville,VA,"Albemarle County",22901,US,"City of Charlottesville"
"600 7 1/2 ST SW, Charlottesville, VA",38.026847,-78.493802,1,range_interpolation,600,"7 1/2 St SW",,,Charlottesville,VA,"Albemarle County",22903,US,"TIGER/Line® dataset from the US Census Bureau"
"1300 LONG ST, Charlottesville, VA",38.035319,-78.4627,1,rooftop,1300,"Long St",,,Charlottesville,VA,"Albemarle County",22901,US,"City of Charlottesville"
"1100 EMMET ST N, Charlottesville, VA",38.051498,-78.5002,1,range_interpolation,1100,"Emmet St N",,,Charlottesville,VA,"Albemarle County",22903,US,"TIGER/Line® dataset from the US Census Bureau"
"2200 GREENBRIER DR, Charlottesville, VA",38.062023,-78.469685,1,rooftop,2200,"Greenbrier Dr",,,Charlottesville,VA,"Albemarle County",22901,US,"City of Charlottesville"
"1100 EMMET ST N, Charlottesville, VA",38.051498,-78.5002,1,range_interpolation,1100,"Emmet St N",,,Charlottesville,VA,"Albemarle County",22903,US,"TIGER/Line® dataset from the US Census Bureau"
"100 W MARKET ST, Charlottesville, VA",38.031682,-78.481145,0.8,range_interpolation,100,"Market St",,,Charlottesville,VA,"Albemarle County",22902,US,"TIGER/Line® dataset from the US Census Bureau"
"700 RIDGE ST, Charlottesville, VA",38.024669,-78.48988,1,range_interpolation,700,"Ridge St",,,Charlottesville,VA,"Albemarle County",22902,US,"TIGER/Line® dataset from the US Census Bureau"
"1200 PRESTON AVE, Charlottesville, VA",38.044104,-78.492733,0.82,nearest_rooftop_match,1202,"Preston Ave",,,Charlottesville,VA,"Albemarle County",22903,US,"Virginia Geographic Information Network (VGIN)"
"400 GARRETT ST, Charlottesville, VA",38.027754,-78.481638,1,rooftop,400,"Garrett St",,,Charlottesville,VA,"Albemarle County",22902,US,"Virginia Geographic Information Network (VGIN)"
"300 E MAIN ST, Charlottesville, VA",38.029931,-78.48003,1,rooftop,300,"E Main St",,,Charlottesville,VA,"Albemarle County",22902,US,"Virginia Geographic Information Network (VGIN)"
"1400 MOORES ST, Charlottesville, VA",38.032759,-78.46571,0.9,range_interpolation,1400,"Moore St",,,Charlottesville,VA,"Albemarle County",22902,US,"TIGER/Line® dataset from the US Census Bureau"
"2000 HOLIDAY DR, Charlottesville, VA",38.057743,-78.491336,1,rooftop,2000,"Holiday Dr",,,Charlottesville,VA,"Albemarle County",22901,US,"City of Charlottesville"
"1600 TRAILRIDGE RD, Charlottesville, VA",38.021062,-78.503347,1,rooftop,1600,"Trailridge Rd",,,Charlottesville,VA,"Albemarle County",22903,US,"City of Charlottesville"
"400 FAIRWAY AVE, Charlottesville, VA",38.027873,-78.461791,1,rooftop,400,"Fairway Ave",,,Charlottesville,VA,"Albemarle County",22902,US,"City of Charlottesville"
"700 MADISON AVE, Charlottesville, VA",38.041161,-78.495152,1,range_interpolation,700,"Madison Ave",,,Charlottesville,VA,"Albemarle County",22903,US,"TIGER/Line® dataset from the US Census Bureau"
"1000 EMMET ST N, Charlottesville, VA",38.050253,-78.50248,1,rooftop,1000,"Emmet St N",,,Charlottesville,VA,"Albemarle County",22903,US,"Virginia Geographic Information Network (VGIN)"
"900 EMMET ST N, Charlottesville, VA",38.048623,-78.503011,1,rooftop,900,"Emmet St N",,,Charlottesville,VA,"Albemarle County",22903,US,"City of Charlottesville"
"100 BURNET ST, Charlottesville, VA",38.02393,-78.487254,1,rooftop,100,"Burnet St",,,Charlottesville,VA,"Albemarle County",22902,US,"City of Charlottesville"
"200 2ND ST NW, Charlottesville, VA",38.031608,-78.481893,1,range_interpolation,200,"2nd St NW",,,Charlottesville,VA,"Albemarle County",22902,US,"TIGER/Line® dataset from the US Census Bureau"
"1300 WILLOW DR, Charlottesville, VA",38.034865,-78.461418,1,range_interpolation,1300,"Willow Dr",,,Charlottesville,VA,"Albemarle County",22902,US,"TIGER/Line® dataset from the US Census Bureau"
"1100 EMMET ST N, Charlottesville, VA",38.051498,-78.5002,1,range_interpolation,1100,"Emmet St N",,,Charlottesville,VA,"Albemarle County",22903,US,"TIGER/Line® dataset from the US Census Bureau"
"300 14TH ST NW, Charlottesville, VA",38.035916,-78.498522,1,range_interpolation,300,"14th St NW",,,Charlottesville,VA,"Albemarle County",22903,US,"TIGER/Line® dataset from the US Census Bureau"
"600 E MARKET ST, Charlottesville, VA",38.030267,-78.477549,1,range_interpolation,600,"Market St E",,,Charlottesville,VA,"Albemarle County",22902,US,"TIGER/Line® dataset from the US Census Bureau"
"200 RIDGE MCINTIRE RD, Charlottesville, VA",38.031294,-78.484883,1,range_interpolation,200,"Ridge Mcintire Rd",,,Charlottesville,VA,"Albemarle County",22903,US,"TIGER/Line® dataset from the US Census Bureau"
"100 W MAIN ST, Charlottesville, VA",38.030482,-78.481848,1,rooftop,100,"W Main St",,,Charlottesville,VA,"Albemarle County",22902,US,"Virginia Geographic Information Network (VGIN)"
"1200 CEDARS CT, Charlottesville, VA",38.055196,-78.5015,1,range_interpolation,1200,"Cedars Ct",,,Charlottesville,VA,"Albemarle County",22903,US,"TIGER/Line® dataset from the US Census Bureau"
"NA 9 1/2 ST NE, Charlottesville, VA",38.031449,-78.472946,1,street_center,,"9 1/2 St NE",,,Charlottesville,VA,"Albemarle County",22902,US,"TIGER/Line® dataset from the US Census Bureau"
"100 LANKFORD AVE, Charlottesville, VA",38.021191,-78.487098,1,rooftop,100,"Lankford Ave",,,Charlottesville,VA,"Albemarle County",22902,US,"City of Charlottesville"
"1300 CARLTON AVE, Charlottesville, VA",38.022084,-78.469217,1,rooftop,1300,"Carlton Ave",,,Charlottesville,VA,"Albemarle County",22902,US,"City of Charlottesville"
"700 ROSE HILL DR, Charlottesville, VA",38.037555,-78.487604,1,rooftop,700,"Rose Hill Dr",,,Charlottesville,VA,"Albemarle County",22903,US,"City of Charlottesville"
"1100 5TH ST SW, Charlottesville, VA",38.014495,-78.50005,1,range_interpolation,1100,"5th St SW",,,Charlottesville,VA,"Albemarle County",22902,US,"TIGER/Line® dataset from the US Census Bureau"
"100 LONGWOOD DR, Charlottesville, VA",38.015538,-78.504415,1,range_interpolation,100,"Longwood Dr",,,Charlottesville,VA,"Albemarle County",22903,US,"TIGER/Line® dataset from the US Census Bureau"
"700 6TH ST SE, Charlottesville, VA",38.025291,-78.480685,1,range_interpolation,700,"6th St SE",,,Charlottesville,VA,"Albemarle County",22902,US,"TIGER/Line® dataset from the US Census Bureau"
"1600 UNIVERSITY AVE, Charlottesville, VA",38.034497,-78.500062,0.9,range_interpolation,1600,"University Ave",,,Charlottesville,VA,"Albemarle County",22903,US,"TIGER/Line® dataset from the US Census Bureau"
"1600 EMMET ST N, Charlottesville, VA",38.057817,-78.493732,1,rooftop,1600,"Emmet St N",,,Charlottesville,VA,"Albemarle County",22901,US,"City of Charlottesville"
"800 W MAIN ST, Charlottesville, VA",38.031848,-78.490814,1,range_interpolation,800,"W Main St",,,Charlottesville,VA,"Albemarle County",22903,US,"TIGER/Line® dataset from the US Census Bureau"
"200 10TH ST NW, Charlottesville, VA",38.033832,-78.494027,1,range_interpolation,200,"10th St NW",,,Charlottesville,VA,"Albemarle County",22903,US,"TIGER/Line® dataset from the US Census Bureau"
"700 BELMONT AVE, Charlottesville, VA",38.024829,-78.47854,1,rooftop,700,"Belmont Ave",,,Charlottesville,VA,"Albemarle County",22902,US,"City of Charlottesville"
"100 LANKFORD AVE, Charlottesville, VA",38.021191,-78.487098,1,rooftop,100,"Lankford Ave",,,Charlottesville,VA,"Albemarle County",22902,US,"City of Charlottesville"
"2300 ANGUS RD, Charlottesville, VA",38.061269,-78.497998,1,rooftop,2300,"Angus Rd",,,Charlottesville,VA,"Albemarle County",22901,US,"City of Charlottesville"
"2300 ANGUS RD, Charlottesville, VA",38.061269,-78.497998,1,rooftop,2300,"Angus Rd",,,Charlottesville,VA,"Albemarle County",22901,US,"City of Charlottesville"
"700 MONTROSE AVE, Charlottesville, VA",38.02188,-78.480831,1,range_interpolation,700,"Montrose Ave",,,Charlottesville,VA,"Albemarle County",22902,US,"TIGER/Line® dataset from the US Census Bureau"
"500 PARK ST, Charlottesville, VA",38.03394,-78.475337,1,rooftop,500,"Park St",,,Charlottesville,VA,"Albemarle County",22902,US,"City of Charlottesville"
"200 E MARKET ST, Charlottesville, VA",38.031121,-78.480304,1,rooftop,200,"E Market St",,,Charlottesville,VA,"Albemarle County",22902,US,"City of Charlottesville"
"1200 EMMET ST N, Charlottesville, VA",38.052819,-78.498406,1,rooftop,1200,"Emmet St N",,,Charlottesville,VA,"Albemarle County",22903,US,"City of Charlottesville"
"2300 FONTAINE AVE, Charlottesville, VA",38.025595,-78.516645,1,rooftop,2300,"Fontaine Ave",,,Charlottesville,VA,"Albemarle County",22901,US,"City of Charlottesville"
"700 6TH ST SE, Charlottesville, VA",38.025291,-78.480685,1,range_interpolation,700,"6th St SE",,,Charlottesville,VA,"Albemarle County",22902,US,"TIGER/Line® dataset from the US Census Bureau"
"600 CHERRY AVE, Charlottesville, VA",38.02702,-78.491261,1,rooftop,600,"Cherry Ave",,,Charlottesville,VA,"Albemarle County",22903,US,"City of Charlottesville"
"200 BYP / MEADOWBROOK HEIGHTS RD, Charlottesville, VA",38.026588,-78.48045,0.33,place,,,,,Charlottesville,VA,"Charlottesville city",22902,US,"TIGER/Line® dataset from the US Census Bureau"
"1300 RIVERDALE DR, Charlottesville, VA",38.035166,-78.461418,1,range_interpolation,1300,"Riverdale Dr",,,Charlottesville,VA,"Albemarle County",22902,US,"TIGER/Line® dataset from the US Census Bureau"
"1800 WINSTON RD, Charlottesville, VA",38.044541,-78.497174,1,range_interpolation,1800,"Winston Rd",,,Charlottesville,VA,"Albemarle County",22903,US,"TIGER/Line® dataset from the US Census Bureau"
"900 EMMET ST N, Charlottesville, VA",38.048623,-78.503011,1,rooftop,900,"Emmet St N",,,Charlottesville,VA,"Albemarle County",22903,US,"City of Charlottesville"
"400 EMMET ST N, Charlottesville, VA",38.043885,-78.504335,1,rooftop,400,"Emmet St N",,,Charlottesville,VA,"Albemarle County",22901,US,"City of Charlottesville"
"100 LANKFORD AVE, Charlottesville, VA",38.021191,-78.487098,1,rooftop,100,"Lankford Ave",,,Charlottesville,VA,"Albemarle County",22902,US,"City of Charlottesville"
"600 E MARKET ST, Charlottesville, VA",38.030267,-78.477549,1,range_interpolation,600,"Market St E",,,Charlottesville,VA,"Albemarle County",22902,US,"TIGER/Line® dataset from the US Census Bureau"
"500 STEWART ST, Charlottesville, VA",38.032053,-78.46528,1,range_interpolation,500,"Stewart St",,,Charlottesville,VA,"Albemarle County",22902,US,"TIGER/Line® dataset from the US Census Bureau"
"1600 RICKY RD, Charlottesville, VA",38.060455,-78.502101,1,rooftop,1600,"Ricky Rd",,,Charlottesville,VA,"Albemarle County",22901,US,"City of Charlottesville"
"600 MARKET ST, Charlottesville, VA",38.030267,-78.477549,0.8,range_interpolation,600,"Market St E",,,Charlottesville,VA,"Albemarle County",22902,US,"TIGER/Line® dataset from the US Census Bureau"
"100 W MARKET ST, Charlottesville, VA",38.031682,-78.481145,0.8,range_interpolation,100,"Market St",,,Charlottesville,VA,"Albemarle County",22902,US,"TIGER/Line® dataset from the US Census Bureau"
"NA BAILEY RD @ 5TH ST, Charlottesville, VA",38.026588,-78.48045,1,place,,,,,Charlottesville,VA,"Charlottesville city",22902,US,"TIGER/Line® dataset from the US Census Bureau"
"200 5TH ST SW, Charlottesville, VA",38.030475,-78.488002,1,range_interpolation,200,"5th St SW",,,Charlottesville,VA,"Albemarle County",22903,US,"TIGER/Line® dataset from the US Census Bureau"
"500 PARK ST, Charlottesville, VA",38.03394,-78.475337,1,rooftop,500,"Park St",,,Charlottesville,VA,"Albemarle County",22902,US,"City of Charlottesville"
"900 ROCK CREEK RD, Charlottesville, VA",38.026588,-78.48045,0.33,place,,,,,Charlottesville,VA,"Charlottesville city",22902,US,"TIGER/Line® dataset from the US Census Bureau"
"200 MAURY AVE, Charlottesville, VA",38.027131,-78.516331,1,range_interpolation,200,"Maury Ave",,,Charlottesville,VA,"Albemarle County",22903,US,"TIGER/Line® dataset from the US Census Bureau"
"200 SHAMROCK RD, Charlottesville, VA",38.026783,-78.510448,1,range_interpolation,200,"Shamrock Rd",,,Charlottesville,VA,"Albemarle County",22903,US,"TIGER/Line® dataset from the US Census Bureau"
"100 LAUREL CIR, Charlottesville, VA",38.023972,-78.501265,1,rooftop,100,"Laurel Cir",,,Charlottesville,VA,"Albemarle County",22903,US,"City of Charlottesville"
"1000 CHERRY AVE, Charlottesville, VA",38.026722,-78.497519,1,rooftop,1000,"Cherry Ave",,,Charlottesville,VA,"Albemarle County",22903,US,"City of Charlottesville"
"700 1ST ST S, Charlottesville, VA",38.02649,-78.484062,1,range_interpolation,700,"1st St S",,,Charlottesville,VA,"Albemarle County",22902,US,"TIGER/Line® dataset from the US Census Bureau"
"100 MAIN ST, Charlottesville, VA",38.030363,-78.481565,0.9,rooftop,100,"E Main St",,,Charlottesville,VA,"Albemarle County",22901,US,"City of Charlottesville"
"600 E MARKET ST, Charlottesville, VA",38.030267,-78.477549,1,range_interpolation,600,"Market St E",,,Charlottesville,VA,"Albemarle County",22902,US,"TIGER/Line® dataset from the US Census Bureau"
"900 NASSAU ST, Charlottesville, VA",38.01721,-78.468552,1,range_interpolation,900,"Nassau St",,,Charlottesville,VA,"Albemarle County",22902,US,"TIGER/Line® dataset from the US Census Bureau"
"600 E MARKET ST, Charlottesville, VA",38.030267,-78.477549,1,range_interpolation,600,"Market St E",,,Charlottesville,VA,"Albemarle County",22902,US,"TIGER/Line® dataset from the US Census Bureau"
"1500 VIRGINIA AVE, Charlottesville, VA",38.038053,-78.498689,1,rooftop,1500,"Virginia Ave",,,Charlottesville,VA,"Albemarle County",22901,US,"City of Charlottesville"
"700 PROSPECT AVE, Charlottesville, VA",38.024646,-78.494399,1,rooftop,700,"Prospect Ave",,,Charlottesville,VA,"Albemarle County",22903,US,"Virginia Geographic Information Network (VGIN)"
"100 OLD LYNCHBURG RD, Charlottesville, VA",38.018706,-78.513221,1,range_interpolation,100,"Old Lynchburg Rd",,,Charlottesville,VA,"Albemarle County",22903,US,"TIGER/Line® dataset from the US Census Bureau"
"NA CEDAR HILL RD / SHELBY DR, Charlottesville, VA",38.026588,-78.48045,1,place,,,,,Charlottesville,VA,"Charlottesville city",22902,US,"TIGER/Line® dataset from the US Census Bureau"
"1300 CARLTON AVE, Charlottesville, VA",38.022084,-78.469217,1,rooftop,1300,"Carlton Ave",,,Charlottesville,VA,"Albemarle County",22902,US,"City of Charlottesville"
"1200 CEDARS CT, Charlottesville, VA",38.055196,-78.5015,1,range_interpolation,1200,"Cedars Ct",,,Charlottesville,VA,"Albemarle County",22903,US,"TIGER/Line® dataset from the US Census Bureau"
"400 13TH ST NW, Charlottesville, VA",38.036718,-78.496805,1,range_interpolation,400,"13th St NW",,,Charlottesville,VA,"Albemarle County",22903,US,"TIGER/Line® dataset from the US Census Bureau"
"1200 HOLMES AVE, Charlottesville, VA",38.045976,-78.460828,1,rooftop,1200,"Holmes Ave",,,Charlottesville,VA,"Albemarle County",22901,US,"City of Charlottesville"
"700 1ST ST S, Charlottesville, VA",38.02649,-78.484062,1,range_interpolation,700,"1st St S",,,Charlottesville,VA,"Albemarle County",22902,US,"TIGER/Line® dataset from the US Census Bureau"
"200 W MAIN ST, Charlottesville, VA",38.030748,-78.482695,1,rooftop,200,"W Main St",,,Charlottesville,VA,"Albemarle County",22901,US,"City of Charlottesville"
"1100 MAIN ST, Charlottesville, VA",38.033001,-78.495935,0.9,range_interpolation,1100,"W Main St",,,Charlottesville,VA,"Albemarle County",22903,US,"TIGER/Line® dataset from the US Census Bureau"
"800 BOLLING AVE, Charlottesville, VA",38.022563,-78.478076,1,rooftop,800,"Bolling Ave",,,Charlottesville,VA,"Albemarle County",22902,US,"City of Charlottesville"
"800 HARDY DR, Charlottesville, VA",38.033559,-78.490241,1,range_interpolation,800,"Hardy Dr",,,Charlottesville,VA,"Albemarle County",22903,US,"TIGER/Line® dataset from the US Census Bureau"
"700 NASSAU ST, Charlottesville, VA",38.01939,-78.466963,1,range_interpolation,700,"Nassau St",,,Charlottesville,VA,"Albemarle County",22902,US,"TIGER/Line® dataset from the US Census Bureau"
"1200 EMMET ST, Charlottesville, VA",38.052819,-78.498406,0.9,rooftop,1200,"Emmet St N",,,Charlottesville,VA,"Albemarle County",22903,US,"City of Charlottesville"
"1600 EMMET ST, Charlottesville, VA",38.057817,-78.493732,0.9,rooftop,1600,"Emmet St N",,,Charlottesville,VA,"Albemarle County",22901,US,"City of Charlottesville"
"200 RIDGE MCINTIRE RD, Charlottesville, VA",38.031294,-78.484883,1,range_interpolation,200,"Ridge Mcintire Rd",,,Charlottesville,VA,"Albemarle County",22903,US,"TIGER/Line® dataset from the US Census Bureau"
"1000 FERN CT, Charlottesville, VA",38.044532,-78.467641,1,rooftop,1000,"Fern Ct",,,Charlottesville,VA,"Albemarle County",22901,US,"City of Charlottesville"
"100 W MAIN ST, Charlottesville, VA",38.030482,-78.481848,1,rooftop,100,"W Main St",,,Charlottesville,VA,"Albemarle County",22902,US,"Virginia Geographic Information Network (VGIN)"
"600 E MARKET ST, Charlottesville, VA",38.030267,-78.477549,1,range_interpolation,600,"Market St E",,,Charlottesville,VA,"Albemarle County",22902,US,"TIGER/Line® dataset from the US Census Bureau"
"600 E MARKET ST, Charlottesville, VA",38.030267,-78.477549,1,range_interpolation,600,"Market St E",,,Charlottesville,VA,"Albemarle County",22902,US,"TIGER/Line® dataset from the US Census Bureau"
"1100 5TH ST SW, Charlottesville, VA",38.014495,-78.50005,1,range_interpolation,1100,"5th St SW",,,Charlottesville,VA,"Albemarle County",22902,US,"TIGER/Line® dataset from the US Census Bureau"
"800 CHERRY AVE, Charlottesville, VA",38.028394,-78.4925,1,range_interpolation,800,"Cherry Ave",,,Charlottesville,VA,"Albemarle County",22903,US,"TIGER/Line® dataset from the US Census Bureau"
"2300 FONTAINE AVE, Charlottesville, VA",38.025595,-78.516645,1,rooftop,2300,"Fontaine Ave",,,Charlottesville,VA,"Albemarle County",22901,US,"City of Charlottesville"
"1400 VINE ST, Charlottesville, VA",38.019645,-78.46853,1,rooftop,1400,"Vine St",,,Charlottesville,VA,"Albemarle County",22902,US,"City of Charlottesville"
"600 E MARKET ST, Charlottesville, VA",38.030267,-78.477549,1,range_interpolation,600,"Market St E",,,Charlottesville,VA,"Albemarle County",22902,US,"TIGER/Line® dataset from the US Census Bureau"
"700 WALKER SQ, Charlottesville, VA",38.030203,-78.491156,1,rooftop,700,"Walker Sq",,,Charlottesville,VA,"Albemarle County",22902,US,"City of Charlottesville"
"NA PORTER AVE / OAK LAWN DR, Charlottesville, VA",38.026588,-78.48045,1,place,,,,,Charlottesville,VA,"Charlottesville city",22902,US,"TIGER/Line® dataset from the US Census Bureau"
"1300 MOUNTAIN VIEW ST, Charlottesville, VA",38.014226,-78.473591,1,range_interpolation,1300,"Mountain View St",,,Charlottesville,VA,"Albemarle County",22902,US,"TIGER/Line® dataset from the US Census Bureau"
"900 ROCK CREEK RD, Charlottesville, VA",38.026588,-78.48045,0.33,place,,,,,Charlottesville,VA,"Charlottesville city",22902,US,"TIGER/Line® dataset from the US Census Bureau"
"400 GARRETT ST, Charlottesville, VA",38.027754,-78.481638,1,rooftop,400,"Garrett St",,,Charlottesville,VA,"Albemarle County",22902,US,"Virginia Geographic Information Network (VGIN)"
"100 CULBRETH RD, Charlottesville, VA",38.040039,-78.504129,1,range_interpolation,100,"Culbreth Rd",,,Charlottesville,VA,"Albemarle County",22903,US,"TIGER/Line® dataset from the US Census Bureau"
"400 RIDGE MCINTIRE RD, Charlottesville, VA",38.03264,-78.484434,1,range_interpolation,400,"Ridge Mcintire Rd",,,Charlottesville,VA,"Albemarle County",22903,US,"TIGER/Line® dataset from the US Census Bureau"
"1300 HIGH ST, Charlottesville, VA",38.031707,-78.46553,0.9,range_interpolation,1300,"State Rte 20",,,Charlottesville,VA,"Albemarle County",22902,US,"TIGER/Line® dataset from the US Census Bureau"
"1200 CEDARS CT, Charlottesville, VA",38.055196,-78.5015,1,range_interpolation,1200,"Cedars Ct",,,Charlottesville,VA,"Albemarle County",22903,US,"TIGER/Line® dataset from the US Census Bureau"
"900 RIVES ST, Charlottesville, VA",38.017745,-78.46969,1,rooftop,900,"Rives St",,,Charlottesville,VA,"Albemarle County",22902,US,"City of Charlottesville"
"200 15TH ST NW, Charlottesville, VA",38.035162,-78.499549,1,rooftop,200,"15th St NW",,,Charlottesville,VA,"Albemarle County",22903,US,"Virginia Geographic Information Network (VGIN)"
"200 W MAIN ST, Charlottesville, VA",38.030748,-78.482695,1,rooftop,200,"W Main St",,,Charlottesville,VA,"Albemarle County",22901,US,"City of Charlottesville"
"200 HUNTLEY AVE, Charlottesville, VA",38.022028,-78.518714,1,range_interpolation,200,"Huntley Ave",,,Charlottesville,VA,"Albemarle County",22903,US,"TIGER/Line® dataset from the US Census Bureau"
"1300 CARLTON AVE, Charlottesville, VA",38.022084,-78.469217,1,rooftop,1300,"Carlton Ave",,,Charlottesville,VA,"Albemarle County",22902,US,"City of Charlottesville"
"1100 GORDON AVE, Charlottesville, VA",38.03813,-78.494226,1,rooftop,1100,"Gordon Ave",,,Charlottesville,VA,"Albemarle County",22903,US,"City of Charlottesville"
"200 MONTE VISTA AVE, Charlottesville, VA",38.01627,-78.51373,1,rooftop,200,"Monte Vista Ave",,,Charlottesville,VA,"Albemarle County",22903,US,"City of Charlottesville"
"300 E MAIN ST, Charlottesville, VA",38.029931,-78.48003,1,rooftop,300,"E Main St",,,Charlottesville,VA,"Albemarle County",22902,US,"Virginia Geographic Information Network (VGIN)"
"200 MAIN ST E, Charlottesville, VA",38.030748,-78.482695,0.9,rooftop,200,"W Main St",,,Charlottesville,VA,"Albemarle County",22901,US,"City of Charlottesville"
"900 W MAIN ST, Charlottesville, VA",38.031799,-78.494644,1,rooftop,900,"W Main St",,,Charlottesville,VA,"Albemarle County",22903,US,"City of Charlottesville"
"500 E MARKET ST, Charlottesville, VA",38.030358,-78.478079,1,rooftop,500,"E Market St",,,Charlottesville,VA,"Albemarle County",22902,US,"City of Charlottesville"
"700 FRANKLIN ST, Charlottesville, VA",38.020288,-78.464352,1,range_interpolation,700,"Franklin St",,,Charlottesville,VA,"Albemarle County",22902,US,"TIGER/Line® dataset from the US Census Bureau"
"1400 JEFFERSON PARK AVE, Charlottesville, VA",38.031808,-78.501871,1,rooftop,1400,"Jefferson Park Ave",,,Charlottesville,VA,"Albemarle County",22901,US,"City of Charlottesville"
"1100 EMMET ST N, Charlottesville, VA",38.051498,-78.5002,1,range_interpolation,1100,"Emmet St N",,,Charlottesville,VA,"Albemarle County",22903,US,"TIGER/Line® dataset from the US Census Bureau"
"200 ELLIOTT AVE, Charlottesville, VA",38.026588,-78.48045,0.33,place,,,,,Charlottesville,VA,"Charlottesville city",22902,US,"TIGER/Line® dataset from the US Census Bureau"
"300 SPRUCE ST, Charlottesville, VA",38.025191,-78.471217,1,range_interpolation,300,"Spruce St",,,Charlottesville,VA,"Albemarle County",22902,US,"TIGER/Line® dataset from the US Census Bureau"
"100 SEMINOLE CT, Charlottesville, VA",38.065629,-78.488112,1,range_interpolation,100,"Seminole Ct",,,Charlottesville,VA,"Albemarle County",22901,US,"TIGER/Line® dataset from the US Census Bureau"
"800 CHARLTON AVE, Charlottesville, VA",38.037778,-78.486229,1,range_interpolation,800,"Charlton Ave",,,Charlottesville,VA,"Albemarle County",22903,US,"TIGER/Line® dataset from the US Census Bureau"
"600 BOOKER ST, Charlottesville, VA",38.038019,-78.489672,1,range_interpolation,600,"Booker St",,,Charlottesville,VA,"Albemarle County",22903,US,"TIGER/Line® dataset from the US Census Bureau"
"200 15TH ST NW, Charlottesville, VA",38.035162,-78.499549,1,rooftop,200,"15th St NW",,,Charlottesville,VA,"Albemarle County",22903,US,"Virginia Geographic Information Network (VGIN)"
"600 BOOKER ST, Charlottesville, VA",38.038019,-78.489672,1,range_interpolation,600,"Booker St",,,Charlottesville,VA,"Albemarle County",22903,US,"TIGER/Line® dataset from the US Census Bureau"
"1200 WERTLAND ST, Charlottesville, VA",38.034171,-78.496505,1,rooftop,1200,"Wertland St",,,Charlottesville,VA,"Albemarle County",22903,US,"Virginia Geographic Information Network (VGIN)"
"400 14TH ST NW, Charlottesville, VA",38.037655,-78.497624,1,range_interpolation,400,"14th St NW",,,Charlottesville,VA,"Albemarle County",22903,US,"TIGER/Line® dataset from the US Census Bureau"
"900 GROVE ST, Charlottesville, VA",38.030256,-78.495704,1,range_interpolation,900,"Grove St",,,Charlottesville,VA,"Albemarle County",22903,US,"TIGER/Line® dataset from the US Census Bureau"
"NA ELLIEWOOD AVE, Charlottesville, VA",38.026588,-78.48045,1,place,,,,,Charlottesville,VA,"Charlottesville city",22902,US,"TIGER/Line® dataset from the US Census Bureau"
"NA KING ST / SPRING ST, Charlottesville, VA",38.026588,-78.48045,1,place,,,,,Charlottesville,VA,"Charlottesville city",22902,US,"TIGER/Line® dataset from the US Census Bureau"
"800 RIDGE ST, Charlottesville, VA",38.022211,-78.491258,1,rooftop,800,"Ridge St",,,Charlottesville,VA,"Albemarle County",22902,US,"City of Charlottesville"
"1000 HOLMES AVE, Charlottesville, VA",38.042693,-78.465159,1,range_interpolation,1000,"Holmes Ave",,,Charlottesville,VA,"Albemarle County",22901,US,"TIGER/Line® dataset from the US Census Bureau"
"NA HANSEN RD, Charlottesville, VA",38.026588,-78.48045,1,place,,,,,Charlottesville,VA,"Charlottesville city",22902,US,"TIGER/Line® dataset from the US Census Bureau"
"1900 EMMET ST N, Charlottesville, VA",38.060855,-78.492224,1,range_interpolation,1900,"Emmet St N",,,Charlottesville,VA,"Albemarle County",22903,US,"TIGER/Line® dataset from the US Census Bureau"
"2100 ARLINGTON BLVD, Charlottesville, VA",38.049485,-78.506608,1,range_interpolation,2100,"Arlington Blvd",,,Charlottesville,VA,"Albemarle County",22903,US,"TIGER/Line® dataset from the US Census Bureau"
"800 E HIGH ST, Charlottesville, VA",38.031252,-78.475207,1,rooftop,800,"E High St",,,Charlottesville,VA,"Albemarle County",22902,US,"City of Charlottesville"
"400 8TH ST NE, Charlottesville, VA",38.031288,-78.475307,1,range_interpolation,400,"8th St NE",,,Charlottesville,VA,"Albemarle County",22902,US,"TIGER/Line® dataset from the US Census Bureau"
"NA JOHN ST / 14TH ST NW, Charlottesville, VA",38.026588,-78.48045,1,place,,,,,Charlottesville,VA,"Charlottesville city",22902,US,"TIGER/Line® dataset from the US Census Bureau"
"1400 UNIVERSITY AVE, Charlottesville, VA",38.033951,-78.49996,1,rooftop,1400,"University Ave",,,Charlottesville,VA,"Albemarle County",22903,US,Albemarle
"100 W MARKET ST, Charlottesville, VA",38.031682,-78.481145,0.8,range_interpolation,100,"Market St",,,Charlottesville,VA,"Albemarle County",22902,US,"TIGER/Line® dataset from the US Census Bureau"
"700 NASSAU ST, Charlottesville, VA",38.01939,-78.466963,1,range_interpolation,700,"Nassau St",,,Charlottesville,VA,"Albemarle County",22902,US,"TIGER/Line® dataset from the US Census Bureau"
"1300 CARLTON AVE, Charlottesville, VA",38.022084,-78.469217,1,rooftop,1300,"Carlton Ave",,,Charlottesville,VA,"Albemarle County",22902,US,"City of Charlottesville"
"1100 GRADY AVE, Charlottesville, VA",38.039136,-78.49401,0.81,nearest_rooftop_match,1104,"Grady Ave",,,Charlottesville,VA,"Albemarle County",22903,US,"City of Charlottesville"
"1600 EMMET ST N, Charlottesville, VA",38.057817,-78.493732,1,rooftop,1600,"Emmet St N",,,Charlottesville,VA,"Albemarle County",22901,US,"City of Charlottesville"
"700 ORANGEDALE AVE, Charlottesville, VA",38.024675,-78.495376,1,rooftop,700,"Orangedale Ave",,,Charlottesville,VA,"Albemarle County",22903,US,"City of Charlottesville"
"300 10TH ST NE, Charlottesville, VA",38.029733,-78.472753,1,range_interpolation,300,"10th St NE",,,Charlottesville,VA,"Albemarle County",22902,US,"TIGER/Line® dataset from the US Census Bureau"
"1100 ST CLAIR AVE, Charlottesville, VA",38.043249,-78.457367,0.76,nearest_rooftop_match,1128,"St Clair Ave",,,Charlottesville,VA,"Albemarle County",22901,US,"Virginia Geographic Information Network (VGIN)"
"800 PRESTON AVE, Charlottesville, VA",38.036342,-78.488528,1,rooftop,800,"Preston Ave",,,Charlottesville,VA,"Albemarle County",22903,US,"City of Charlottesville"
"900 1ST ST S, Charlottesville, VA",38.022908,-78.485672,1,rooftop,900,"1st St S",,,Charlottesville,VA,"Albemarle County",22902,US,"Virginia Geographic Information Network (VGIN)"
"100 W MARKET ST, Charlottesville, VA",38.031682,-78.481145,0.8,range_interpolation,100,"Market St",,,Charlottesville,VA,"Albemarle County",22902,US,"TIGER/Line® dataset from the US Census Bureau"
"1200 SMITH ST, Charlottesville, VA",38.041405,-78.459064,1,range_interpolation,1200,"Smith St",,,Charlottesville,VA,"Albemarle County",22901,US,"TIGER/Line® dataset from the US Census Bureau"
"NA ELLIEWOOD AVE, Charlottesville, VA",38.026588,-78.48045,1,place,,,,,Charlottesville,VA,"Charlottesville city",22902,US,"TIGER/Line® dataset from the US Census Bureau"
"500 ELLIOTT AVE, Charlottesville, VA",38.02215,-78.483797,1,rooftop,500,"Elliott Ave",,,Charlottesville,VA,"Albemarle County",22902,US,"City of Charlottesville"
"NA 6TH ST SE / BOLLING AVE, Charlottesville, VA",38.024314,-78.481287,0.85,intersection,,"6th St SE",,,Charlottesville,VA,"Albemarle County",22902,US,"TIGER/Line® dataset from the US Census Bureau"
"1000 PAGE ST, Charlottesville, VA",38.035177,-78.493817,1,rooftop,1000,"Page St",,,Charlottesville,VA,"Albemarle County",22903,US,"City of Charlottesville"
"1500 SHAMROCK RD, Charlottesville, VA",38.026588,-78.48045,0.33,place,,,,,Charlottesville,VA,"Charlottesville city",22902,US,"TIGER/Line® dataset from the US Census Bureau"
"900 PAGE ST, Charlottesville, VA",38.034765,-78.492001,1,rooftop,900,"Page St",,,Charlottesville,VA,"Albemarle County",22903,US,"City of Charlottesville"
"100 E MAIN ST, Charlottesville, VA",38.030363,-78.481565,1,rooftop,100,"E Main St",,,Charlottesville,VA,"Albemarle County",22901,US,"City of Charlottesville"
"2100 IVY RD, Charlottesville, VA",38.042471,-78.511905,1,rooftop,2100,"Ivy Rd",,,Charlottesville,VA,"Albemarle County",22902,US,"City of Charlottesville"
