Addresses,Latitude,Longitude,Accuracy Score,Accuracy Type,Number,Street,Unit Type,Unit Number,City,State,County,Zip,Country,Source
"500 CHERRY AVE, Charlottesville, VA",38.02629,-78.491051,1,rooftop,500,Cherry Ave,,,Charlottesville,VA,Albemarle County,22903,US,City of Charlottesville
"1300 W MAIN ST, Charlottesville, VA",38.033404,-78.49779,1,range_interpolation,1300,Main St W,,,Charlottesville,VA,Albemarle County,22903,US,TIGER/Line® dataset from the US Census Bureau
"200 E MAIN ST, Charlottesville, VA",38.030391,-78.480746,1,range_interpolation,200,E Main St,,,Charlottesville,VA,Albemarle County,22902,US,TIGER/Line® dataset from the US Census Bureau
"2100 ARLINGTON BLVD, Charlottesville, VA",38.049485,-78.506608,1,range_interpolation,2100,Arlington Blvd,,,Charlottesville,VA,Albemarle County,22903,US,TIGER/Line® dataset from the US Census Bureau
"800 HARDY DR, Charlottesville, VA",38.033559,-78.490241,1,range_interpolation,800,Hardy Dr,,,Charlottesville,VA,Albemarle County,22903,US,TIGER/Line® dataset from the US Census Bureau
"1000 FOREST HILLS AVE, Charlottesville, VA",38.025451,-78.495668,1,range_interpolation,1000,Forest Hills Ave,,,Charlottesville,VA,Albemarle County,22903,US,TIGER/Line® dataset from the US Census Bureau
"1400 MONTICELLO RD, Charlottesville, VA",38.019358,-78.472299,1,rooftop,1400,Monticello Rd,,,Charlottesville,VA,Albemarle County,22902,US,City of Charlottesville
"600 E MARKET ST, Charlottesville, VA",38.030267,-78.477549,1,range_interpolation,600,Market St E,,,Charlottesville,VA,Albemarle County,22902,US,TIGER/Line® dataset from the US Census Bureau
"1000 E MARKET ST, Charlottesville, VA",38.028559,-78.47318,1,rooftop,1000,E Market St,,,Charlottesville,VA,Albemarle County,22902,US,City of Charlottesville
"500 STONEHENGE AVE, Charlottesville, VA",38.020107,-78.485793,1,rooftop,500,Stonehenge Ave,,,Charlottesville,VA,Albemarle County,22902,US,City of Charlottesville
"1600 GREEN ST, Charlottesville, VA",38.015926,-78.481467,1,rooftop,1600,Green St,,,Charlottesville,VA,Albemarle County,22902,US,City of Charlottesville
"1100 EMMET ST N, Charlottesville, VA",38.051498,-78.5002,1,range_interpolation,1100,Emmet St N,,,Charlottesville,VA,Albemarle County,22903,US,TIGER/Line® dataset from the US Census Bureau
"4000 CITY WALK WAY, Charlottesville, VA",38.026588,-78.48045,0.33,place,,,,,Charlottesville,VA,Charlottesville city,22902,US,TIGER/Line® dataset from the US Census Bureau
"1300 POPLAR ST, Charlottesville, VA",38.032895,-78.467148,1,rooftop,1300,Poplar St,,,Charlottesville,VA,Albemarle County,22902,US,City of Charlottesville
"1400 JOHN ST, Charlottesville, VA",38.037224,-78.497384,0.54,nearest_rooftop_match,1311,John St,,,Charlottesville,VA,Albemarle County,22903,US,Virginia Geographic Information Network (VGIN)
"NA 14TH ST NW / VIRGINIA AVE, Charlottesville, VA",38.037805,-78.497624,0.92,intersection,,14th St NW,,,Charlottesville,VA,Albemarle County,22903,US,TIGER/Line® dataset from the US Census Bureau
"800 W MAIN ST, Charlottesville, VA",38.031848,-78.490814,1,range_interpolation,800,W Main St,,,Charlottesville,VA,Albemarle County,22903,US,TIGER/Line® dataset from the US Census Bureau
"200 W MAIN ST, Charlottesville, VA",38.030748,-78.482695,1,rooftop,200,W Main St,,,Charlottesville,VA,Albemarle County,22901,US,City of Charlottesville
"200 RIDGE MCINTIRE RD, Charlottesville, VA",38.031294,-78.484883,1,range_interpolation,200,Ridge Mcintire Rd,,,Charlottesville,VA,Albemarle County,22903,US,TIGER/Line® dataset from the US Census Bureau
"1400 MELBOURNE RD, Charlottesville, VA",38.052489,-78.475702,1,rooftop,1400,Melbourne Rd,,,Charlottesville,VA,Albemarle County,22902,US,City of Charlottesville
"200 14TH ST NW, Charlottesville, VA",38.034794,-78.498909,1,rooftop,200,14th St NW,,,Charlottesville,VA,Albemarle County,22903,US,City of Charlottesville
"700 CYNTHIANNA AVE, Charlottesville, VA",38.039226,-78.483145,1,range_interpolation,700,Cynthianna Ave,,,Charlottesville,VA,Albemarle County,22903,US,TIGER/Line® dataset from the US Census Bureau
"2100 IVY RD, Charlottesville, VA",38.042471,-78.511905,1,rooftop,2100,Ivy Rd,,,Charlottesville,VA,Albemarle County,22902,US,City of Charlottesville
"800 W MAIN ST, Charlottesville, VA",38.031848,-78.490814,1,range_interpolation,800,W Main St,,,Charlottesville,VA,Albemarle County,22903,US,TIGER/Line® dataset from the US Census Bureau
"900 EMMET ST N, Charlottesville, VA",38.048623,-78.503011,1,rooftop,900,Emmet St N,,,Charlottesville,VA,Albemarle County,22903,US,City of Charlottesville
"100 MADISON LN, Charlottesville, VA",38.036242,-78.502401,1,range_interpolation,100,Madison Ln,,,Charlottesville,VA,Albemarle County,22903,US,TIGER/Line® dataset from the US Census Bureau
"400 GARRETT ST, Charlottesville, VA",38.027754,-78.481638,1,rooftop,400,Garrett St,,,Charlottesville,VA,Albemarle County,22902,US,Virginia Geographic Information Network (VGIN)
"1200 W MAIN ST, Charlottesville, VA",38.032645,-78.496684,1,rooftop,1200,W Main St,,,Charlottesville,VA,Albemarle County,22903,US,Virginia Geographic Information Network (VGIN)
"300 9TH ST SW, Charlottesville, VA",38.030035,-78.494688,1,rooftop,300,9th St SW,,,Charlottesville,VA,Albemarle County,22902,US,City of Charlottesville
"800 BOLLING AVE, Charlottesville, VA",38.022563,-78.478076,1,rooftop,800,Bolling Ave,,,Charlottesville,VA,Albemarle County,22902,US,City of Charlottesville
"1000 PAGE ST, Charlottesville, VA",38.035177,-78.493817,1,rooftop,1000,Page St,,,Charlottesville,VA,Albemarle County,22903,US,City of Charlottesville
"NA MONTICELLO AVE / QUARRY RD, Charlottesville, VA",38.026588,-78.48045,1,place,,,,,Charlottesville,VA,Charlottesville city,22902,US,TIGER/Line® dataset from the US Census Bureau
"1400 EARLY ST, Charlottesville, VA",38.018999,-78.483432,1,rooftop,1400,Early St,,,Charlottesville,VA,Albemarle County,22902,US,City of Charlottesville
"800 CHERRY AVE, Charlottesville, VA",38.028394,-78.4925,1,range_interpolation,800,Cherry Ave,,,Charlottesville,VA,Albemarle County,22903,US,TIGER/Line® dataset from the US Census Bureau
"100 HARTFORD CT, Charlottesville, VA",38.018768,-78.472205,1,rooftop,100,Hartford Ct,,,Charlottesville,VA,Albemarle County,22902,US,City of Charlottesville
"2100 BARRACKS RD, Charlottesville, VA",38.052715,-78.499043,1,range_interpolation,2100,Barracks Rd,,,Charlottesville,VA,Albemarle County,22903,US,TIGER/Line® dataset from the US Census Bureau
"NA GARRETT ST / GLEASON ST, Charlottesville, VA",38.026588,-78.48045,1,place,,,,,Charlottesville,VA,Charlottesville city,22902,US,TIGER/Line® dataset from the US Census Bureau
"2100 MICHIE DR, Charlottesville, VA",38.065057,-78.48225,1,rooftop,2100,Michie Dr,,,Charlottesville,VA,Albemarle County,22901,US,City of Charlottesville
"700 PROSPECT AVE, Charlottesville, VA",38.024646,-78.494399,1,rooftop,700,Prospect Ave,,,Charlottesville,VA,Albemarle County,22903,US,Virginia Geographic Information Network (VGIN)
"800 W MAIN ST, Charlottesville, VA",38.031848,-78.490814,1,range_interpolation,800,W Main St,,,Charlottesville,VA,Albemarle County,22903,US,TIGER/Line® dataset from the US Census Bureau
"500 CAROLINE AVE, Charlottesville, VA",38.029594,-78.463905,1,range_interpolation,500,Caroline Ave,,,Charlottesville,VA,Albemarle County,22902,US,TIGER/Line® dataset from the US Census Bureau
"500 HARRIS RD, Charlottesville, VA",38.014946,-78.503703,1,range_interpolation,500,Harris Rd,,,Charlottesville,VA,Albemarle County,22903,US,TIGER/Line® dataset from the US Census Bureau
"2100 MICHIE DR, Charlottesville, VA",38.065057,-78.48225,1,rooftop,2100,Michie Dr,,,Charlottesville,VA,Albemarle County,22901,US,City of Charlottesville
"700 PROSPECT AVE, Charlottesville, VA",38.024646,-78.494399,1,rooftop,700,Prospect Ave,,,Charlottesville,VA,Albemarle County,22903,US,Virginia Geographic Information Network (VGIN)
"700 CHERRY AVE, Charlottesville, VA",38.027807,-78.491575,1,range_interpolation,700,Cherry Ave,,,Charlottesville,VA,Albemarle County,22903,US,TIGER/Line® dataset from the US Census Bureau
"2000 HOLIDAY DR, Charlottesville, VA",38.057743,-78.491336,1,rooftop,2000,Holiday Dr,,,Charlottesville,VA,Albemarle County,22901,US,City of Charlottesville
"400 CHERRY AVE, Charlottesville, VA",38.026037,-78.488967,1,range_interpolation,400,Cherry Ave,,,Charlottesville,VA,Albemarle County,22903,US,TIGER/Line® dataset from the US Census Bureau
"NA PRESTON AVE/HARRIS ST, Charlottesville, VA",38.026588,-78.48045,1,place,,,,,Charlottesville,VA,Charlottesville city,22902,US,TIGER/Line® dataset from the US Census Bureau
"2400 FONTAINE AVE, Charlottesville, VA",38.025784,-78.518964,1,rooftop,2400,Fontaine Ave,,,Charlottesville,VA,Albemarle County,22901,US,City of Charlottesville
"900 KING ST, Charlottesville, VA",38.029745,-78.495466,1,range_interpolation,900,King St,,,Charlottesville,VA,Albemarle County,22903,US,TIGER/Line® dataset from the US Census Bureau
"600 E MARKET ST, Charlottesville, VA",38.030267,-78.477549,1,range_interpolation,600,Market St E,,,Charlottesville,VA,Albemarle County,22902,US,TIGER/Line® dataset from the US Census Bureau
"1200 CARLTON AVE, Charlottesville, VA",38.023408,-78.471574,1,rooftop,1200,Carlton Ave,,,Charlottesville,VA,Albemarle County,22902,US,City of Charlottesville
"300 15TH ST NW, Charlottesville, VA",38.036158,-78.499392,1,range_interpolation,300,15th St NW,,,Charlottesville,VA,Albemarle County,22903,US,TIGER/Line® dataset from the US Census Bureau
"100 GOODMAN ST, Charlottesville, VA",38.027592,-78.474548,1,range_interpolation,100,Goodman St,,,Charlottesville,VA,Albemarle County,22902,US,TIGER/Line® dataset from the US Census Bureau
"800 ESTES ST, Charlottesville, VA",38.030837,-78.492632,1,range_interpolation,800,Estes St,,,Charlottesville,VA,Albemarle County,22903,US,TIGER/Line® dataset from the US Census Bureau
"1500 VIRGINIA AVE, Charlottesville, VA",38.038053,-78.498689,1,rooftop,1500,Virginia Ave,,,Charlottesville,VA,Albemarle County,22901,US,City of Charlottesville
"600 E MARKET ST, Charlottesville, VA",38.030267,-78.477549,1,range_interpolation,600,Market St E,,,Charlottesville,VA,Albemarle County,22902,US,TIGER/Line® dataset from the US Census Bureau
"400 E MAIN ST, Charlottesville, VA",38.029803,-78.479272,1,rooftop,400,E Main St,,,Charlottesville,VA,Albemarle County,22902,US,City of Charlottesville
"800 HARDY DR, Charlottesville, VA",38.033559,-78.490241,1,range_interpolation,800,Hardy Dr,,,Charlottesville,VA,Albemarle County,22903,US,TIGER/Line® dataset from the US Census Bureau
"1400 CHESAPEAKE ST, Charlottesville, VA",38.025704,-78.462858,1,rooftop,1400,Chesapeake St,,,Charlottesville,VA,Albemarle County,22902,US,City of Charlottesville
"2000 HOLIDAY DR, Charlottesville, VA",38.057743,-78.491336,1,rooftop,2000,Holiday Dr,,,Charlottesville,VA,Albemarle County,22901,US,City of Charlottesville
"700 ROCKLAND AVE, Charlottesville, VA",38.017903,-78.48365,1,rooftop,700,Rockland Ave,,,Charlottesville,VA,Albemarle County,22902,US,City of Charlottesville
"200 RUGBY RD, Charlottesville, VA",38.039647,-78.501654,1,range_interpolation,200,Rugby Rd,,,Charlottesville,VA,Albemarle County,22903,US,TIGER/Line® dataset from the US Census Bureau
"1100 RIVER CT, Charlottesville, VA",38.042362,-78.456287,1,rooftop,1100,River Ct,,,Charlottesville,VA,Albemarle County,22901,US,City of Charlottesville
"1000 LONG ST, Charlottesville, VA",38.038498,-78.465847,1,range_interpolation,1000,Long St,,,Charlottesville,VA,Albemarle County,22901,US,TIGER/Line® dataset from the US Census Bureau
"200 E MAIN ST, Charlottesville, VA",38.030391,-78.480746,1,range_interpolation,200,E Main St,,,Charlottesville,VA,Albemarle County,22902,US,TIGER/Line® dataset from the US Census Bureau
"NA 2ND ST SE / E SOUTH ST, Charlottesville, VA",38.029122,-78.481417,0.8,intersection,,2nd St SE,,,Charlottesville,VA,Albemarle County,22902,US,TIGER/Line® dataset from the US Census Bureau
"900 BING LN, Charlottesville, VA",38.01976,-78.507945,1,rooftop,900,Bing Ln,,,Charlottesville,VA,Albemarle County,22903,US,City of Charlottesville
"500 LEXINGTON AVE, Charlottesville, VA",38.033038,-78.472368,1,rooftop,500,Lexington Ave,,,Charlottesville,VA,Albemarle County,22902,US,City of Charlottesville
"200 9TH ST SW, Charlottesville, VA",38.031371,-78.495468,1,range_interpolation,200,9th St SW,,,Charlottesville,VA,Albemarle County,22903,US,TIGER/Line® dataset from the US Census Bureau
"2300 JEFFERSON PARK AVE, Charlottesville, VA",38.024268,-78.514442,1,rooftop,2300,Jefferson Park Ave,,,Charlottesville,VA,Albemarle County,22901,US,City of Charlottesville
"500 2ND ST SE, Charlottesville, VA",38.03427,-78.478722,0.8,rooftop,500,2nd St NE,,,Charlottesville,VA,Albemarle County,22901,US,City of Charlottesville
"100 MINOR COURT LN, Charlottesville, VA",38.034639,-78.500517,1,range_interpolation,100,Minor Court Ln,,,Charlottesville,VA,Albemarle County,22903,US,TIGER/Line® dataset from the US Census Bureau
"2200 FONTAINE AVE, Charlottesville, VA",38.026076,-78.515987,1,range_interpolation,2200,Fontaine Ave,,,Charlottesville,VA,Albemarle County,22903,US,TIGER/Line® dataset from the US Census Bureau
"100 BURNET ST, Charlottesville, VA",38.02393,-78.487254,1,rooftop,100,Burnet St,,,Charlottesville,VA,Albemarle County,22902,US,City of Charlottesville
"800 E JEFFERSON ST, Charlottesville, VA",38.03079,-78.475436,1,rooftop,800,E Jefferson St,,,Charlottesville,VA,Albemarle County,22902,US,City of Charlottesville
"1000 BELMONT AVE, Charlottesville, VA",38.022736,-78.473958,1,rooftop,1000,Belmont Ave,,,Charlottesville,VA,Albemarle County,22902,US,City of Charlottesville
"200 14TH ST NW, Charlottesville, VA",38.034794,-78.498909,1,rooftop,200,14th St NW,,,Charlottesville,VA,Albemarle County,22903,US,City of Charlottesville
"200 ZAN RD, Charlottesville, VA",38.064994,-78.486363,1,range_interpolation,200,Zan Rd,,,Charlottesville,VA,Albemarle County,22901,US,TIGER/Line® dataset from the US Census Bureau
"700 PAGE ST, Charlottesville, VA",38.033917,-78.489305,1,range_interpolation,700,Page St,,,Charlottesville,VA,Albemarle County,22903,US,TIGER/Line® dataset from the US Census Bureau
"800 W MAIN ST, Charlottesville, VA",38.031848,-78.490814,1,range_interpolation,800,W Main St,,,Charlottesville,VA,Albemarle County,22903,US,TIGER/Line® dataset from the US Census Bureau
"100 14TH ST NW, Charlottesville, VA",38.034122,-78.499326,1,rooftop,100,14th St NW,,,Charlottesville,VA,Albemarle County,22903,US,Virginia Geographic Information Network (VGIN)
"100 LANKFORD AVE, Charlottesville, VA",38.021191,-78.487098,1,rooftop,100,Lankford Ave,,,Charlottesville,VA,Albemarle County,22902,US,City of Charlottesville
"100 GILDERSLEEVE WOOD, Charlottesville, VA",38.026588,-78.48045,0.33,place,,,,,Charlottesville,VA,Charlottesville city,22902,US,TIGER/Line® dataset from the US Census Bureau
"400 GARRETT ST, Charlottesville, VA",38.027754,-78.481638,1,rooftop,400,Garrett St,,,Charlottesville,VA,Albemarle County,22902,US,Virginia Geographic Information Network (VGIN)
"1500 DAIRY RD, Charlottesville, VA",38.052849,-78.48642,1,range_interpolation,1500,Dairy Rd,,,Charlottesville,VA,Albemarle County,22903,US,TIGER/Line® dataset from the US Census Bureau
"1900 ARLINGTON BLVD, Charlottesville, VA",38.047832,-78.504303,1,rooftop,1900,Arlington Blvd,,,Charlottesville,VA,Albemarle County,22903,US,City of Charlottesville
"200 8TH ST NW, Charlottesville, VA",38.033259,-78.490241,1,range_interpolation,200,8th St NW,,,Charlottesville,VA,Albemarle County,22903,US,TIGER/Line® dataset from the US Census Bureau
"1500 6TH ST SE, Charlottesville, VA",38.018683,-78.484921,1,rooftop,1500,6th St SE,,,Charlottesville,VA,Albemarle County,22902,US,City of Charlottesville
"600 E MARKET ST, Charlottesville, VA",38.030267,-78.477549,1,range_interpolation,600,Market St E,,,Charlottesville,VA,Albemarle County,22902,US,TIGER/Line® dataset from the US Census Bureau
"1700 GRADY AVE, Charlottesville, VA",38.041436,-78.499349,1,range_interpolation,1700,Grady Ave,,,Charlottesville,VA,Albemarle County,22903,US,TIGER/Line® dataset from the US Census Bureau
"1300 E MARKET ST, Charlottesville, VA",38.026214,-78.467407,1,range_interpolation,1300,Market St E,,,Charlottesville,VA,Albemarle County,22902,US,TIGER/Line® dataset from the US Census Bureau
"900 1ST ST S, Charlottesville, VA",38.022908,-78.485672,1,rooftop,900,1st St S,,,Charlottesville,VA,Albemarle County,22902,US,Virginia Geographic Information Network (VGIN)
"500 ELLIOTT AVE, Charlottesville, VA",38.02215,-78.483797,1,rooftop,500,Elliott Ave,,,Charlottesville,VA,Albemarle County,22902,US,City of Charlottesville
"500 W MAIN ST, Charlottesville, VA",38.030788,-78.487892,1,rooftop,500,W Main St,,,Charlottesville,VA,Albemarle County,22903,US,Virginia Geographic Information Network (VGIN)
"1000 CHERRY AVE, Charlottesville, VA",38.026722,-78.497519,1,rooftop,1000,Cherry Ave,,,Charlottesville,VA,Albemarle County,22903,US,City of Charlottesville
"100 OLINDA DR, Charlottesville, VA",38.023796,-78.49979,1,rooftop,100,Olinda Dr,,,Charlottesville,VA,Albemarle County,22901,US,City of Charlottesville
"NA 4TH ST SE / E MAIN ST, Charlottesville, VA",38.030045,-78.479255,1,intersection,,4th St SE,,,Charlottesville,VA,Albemarle County,22902,US,TIGER/Line® dataset from the US Census Bureau
"1300 LONG ST, Charlottesville, VA",38.035319,-78.4627,1,rooftop,1300,Long St,,,Charlottesville,VA,Albemarle County,22901,US,City of Charlottesville
"100 OLD LYNCHBURG RD, Charlottesville, VA",38.018706,-78.513221,1,range_interpolation,100,Old Lynchburg Rd,,,Charlottesville,VA,Albemarle County,22903,US,TIGER/Line® dataset from the US Census Bureau
"1100 RIVER RD, Charlottesville, VA",38.038632,-78.456902,1,range_interpolation,1100,River Rd,,,Charlottesville,VA,Albemarle County,22902,US,TIGER/Line® dataset from the US Census Bureau
"500 E MAIN ST, Charlottesville, VA",38.030691,-78.480746,1,range_interpolation,500,E Main St,,,Charlottesville,VA,Albemarle County,22902,US,TIGER/Line® dataset from the US Census Bureau
"100 2ND ST SW, Charlottesville, VA",38.031193,-78.482244,1,range_interpolation,100,2nd St SW,,,Charlottesville,VA,Albemarle County,22902,US,TIGER/Line® dataset from the US Census Bureau
"NA MELBOURNE RD, Charlottesville, VA",38.026588,-78.48045,1,place,,,,,Charlottesville,VA,Charlottesville city,22902,US,TIGER/Line® dataset from the US Census Bureau
"900 EMMET ST N, Charlottesville, VA",38.048623,-78.503011,1,rooftop,900,Emmet St N,,,Charlottesville,VA,Albemarle County,22903,US,City of Charlottesville
"1300 RUGBY RD, Charlottesville, VA",38.04873,-78.492093,1,range_interpolation,1300,Rugby Rd,,,Charlottesville,VA,Albemarle County,22903,US,TIGER/Line® dataset from the US Census Bureau
"600 E MARKET ST, Charlottesville, VA",38.030267,-78.477549,1,range_interpolation,600,Market St E,,,Charlottesville,VA,Albemarle County,22902,US,TIGER/Line® dataset from the US Census Bureau
"300 10TH ST NW, Charlottesville, VA",38.03523,-78.493175,1,rooftop,300,10th St NW,,,Charlottesville,VA,Albemarle County,22903,US,City of Charlottesville
"500 ROCKLAND AVE, Charlottesville, VA",38.019593,-78.486204,1,range_interpolation,500,Rockland Ave,,,Charlottesville,VA,Albemarle County,22902,US,TIGER/Line® dataset from the US Census Bureau
"2300 ANGUS RD, Charlottesville, VA",38.061269,-78.497998,1,rooftop,2300,Angus Rd,,,Charlottesville,VA,Albemarle County,22901,US,City of Charlottesville
"900 RIVES ST, Charlottesville, VA",38.017745,-78.46969,1,rooftop,900,Rives St,,,Charlottesville,VA,Albemarle County,22902,US,City of Charlottesville
"1200 GRADY AVE, Charlottesville, VA",38.039578,-78.494309,1,range_interpolation,1200,Grady Ave,,,Charlottesville,VA,Albemarle County,22903,US,TIGER/Line® dataset from the US Census Bureau
"400 EMMET ST S, Charlottesville, VA",38.036344,-78.507351,1,rooftop,400,Emmet St S,,,Charlottesville,VA,Albemarle County,22903,US,Albemarle
"2200 ANGUS RD, Charlottesville, VA",38.060894,-78.49691,1,rooftop,2200,Angus Rd,,,Charlottesville,VA,Albemarle County,22901,US,City of Charlottesville
"1400 SHORT 18TH ST, Charlottesville, VA",38.026538,-78.462371,1,rooftop,1400,Short 18th St,,,Charlottesville,VA,Albemarle County,22902,US,City of Charlottesville
"1500 ROSA TER, Charlottesville, VA",38.019814,-78.486029,1,range_interpolation,1500,Rosa Ter,,,Charlottesville,VA,Albemarle County,22902,US,TIGER/Line® dataset from the US Census Bureau
"500 W MAIN ST, Charlottesville, VA",38.030788,-78.487892,1,rooftop,500,W Main St,,,Charlottesville,VA,Albemarle County,22903,US,Virginia Geographic Information Network (VGIN)
"1100 EMMET ST N, Charlottesville, VA",38.051498,-78.5002,1,range_interpolation,1100,Emmet St N,,,Charlottesville,VA,Albemarle County,22903,US,TIGER/Line® dataset from the US Census Bureau
"400 GARRETT ST, Charlottesville, VA",38.027754,-78.481638,1,rooftop,400,Garrett St,,,Charlottesville,VA,Albemarle County,22902,US,Virginia Geographic Information Network (VGIN)
"100 BUCKINGHAM RD, Charlottesville, VA",38.04881,-78.494808,1,range_interpolation,100,Buckingham Rd,,,Charlottesville,VA,Albemarle County,22903,US,TIGER/Line® dataset from the US Census Bureau
"600 E MARKET ST, Charlottesville, VA",38.030267,-78.477549,1,range_interpolation,600,Market St E,,,Charlottesville,VA,Albemarle County,22902,US,TIGER/Line® dataset from the US Census Bureau
"NA 9TH ST SW / CHERRY AVE, Charlottesville, VA",38.028832,-78.495257,1,intersection,,9th St SW,,,Charlottesville,VA,Albemarle County,22903,US,TIGER/Line® dataset from the US Census Bureau
"1200 MONTICELLO RD, Charlottesville, VA",38.021337,-78.472547,1,rooftop,1200,Monticello Rd,,,Charlottesville,VA,Albemarle County,22902,US,City of Charlottesville
"NA W MARKET ST / 1ST ST N, Charlottesville, VA",38.026588,-78.48045,1,place,,,,,Charlottesville,VA,Charlottesville city,22902,US,TIGER/Line® dataset from the US Census Bureau
"500 HARRIS RD, Charlottesville, VA",38.014946,-78.503703,1,range_interpolation,500,Harris Rd,,,Charlottesville,VA,Albemarle County,22903,US,TIGER/Line® dataset from the US Census Bureau
"800 HARDY DR, Charlottesville, VA",38.033559,-78.490241,1,range_interpolation,800,Hardy Dr,,,Charlottesville,VA,Albemarle County,22903,US,TIGER/Line® dataset from the US Census Bureau
"1500 DAIRY RD, Charlottesville, VA",38.052849,-78.48642,1,range_interpolation,1500,Dairy Rd,,,Charlottesville,VA,Albemarle County,22903,US,TIGER/Line® dataset from the US Census Bureau
"1000 BELMONT AVE, Charlottesville, VA",38.022736,-78.473958,1,rooftop,1000,Belmont Ave,,,Charlottesville,VA,Albemarle County,22902,US,City of Charlottesville
"600 W MAIN ST, Charlottesville, VA",38.030966,-78.488496,1,rooftop,600,W Main St,,,Charlottesville,VA,Albemarle County,22903,US,Virginia Geographic Information Network (VGIN)
"800 5TH ST SW, Charlottesville, VA",38.022987,-78.491948,1,rooftop,800,5th St SW,,,Charlottesville,VA,Albemarle County,22902,US,City of Charlottesville
"700 WALKER SQ, Charlottesville, VA",38.030203,-78.491156,1,rooftop,700,Walker Sq,,,Charlottesville,VA,Albemarle County,22902,US,City of Charlottesville
"1800 HYDRAULIC RD, Charlottesville, VA",38.060222,-78.490328,1,range_interpolation,1800,Hydraulic Rd,,,Charlottesville,VA,Albemarle County,22901,US,TIGER/Line® dataset from the US Census Bureau
"1100 6TH ST SE, Charlottesville, VA",38.022122,-78.482964,1,range_interpolation,1100,6th St SE,,,Charlottesville,VA,Albemarle County,22902,US,TIGER/Line® dataset from the US Census Bureau
"1300 FRANCIS FIFE WAY, Charlottesville, VA",38.026861,-78.501611,0.64,nearest_rooftop_match,1341,Francis Fife Way,,,Charlottesville,VA,Albemarle County,22903,US,Virginia Geographic Information Network (VGIN)
"600 HINTON AVE, Charlottesville, VA",38.026355,-78.479577,1,rooftop,600,Hinton Ave,,,Charlottesville,VA,Albemarle County,22902,US,City of Charlottesville
"2300 CRESTMONT AVE, Charlottesville, VA",38.02078,-78.510129,1,range_interpolation,2300,Crestmont Ave,,,Charlottesville,VA,Albemarle County,22903,US,TIGER/Line® dataset from the US Census Bureau
"1000 MONTICELLO RD, Charlottesville, VA",38.023547,-78.473137,1,rooftop,1000,Monticello Rd,,,Charlottesville,VA,Albemarle County,22902,US,City of Charlottesville
"900 ELLIOTT AVE, Charlottesville, VA",38.019591,-78.478223,1,rooftop,900,Elliott Ave,,,Charlottesville,VA,Albemarle County,22902,US,City of Charlottesville
"1400 UNIVERSITY AVE, Charlottesville, VA",38.033951,-78.49996,1,rooftop,1400,University Ave,,,Charlottesville,VA,Albemarle County,22903,US,Albemarle
"1200 EMMET ST N, Charlottesville, VA",38.052819,-78.498406,1,rooftop,1200,Emmet St N,,,Charlottesville,VA,Albemarle County,22903,US,City of Charlottesville
"100 LANKFORD AVE, Charlottesville, VA",38.021191,-78.487098,1,rooftop,100,Lankford Ave,,,Charlottesville,VA,Albemarle County,22902,US,City of Charlottesville
"NA E HIGH ST / 9TH ST NE, Charlottesville, VA",38.026588,-78.48045,1,place,,,,,Charlottesville,VA,Charlottesville city,22902,US,TIGER/Line® dataset from the US Census Bureau
"100 250 BYPASS OFFRAMP E, Charlottesville, VA",38.026588,-78.48045,0.33,place,,,,,Charlottesville,VA,Charlottesville city,22902,US,TIGER/Line® dataset from the US Census Bureau
"1400 UNIVERSITY AVE, Charlottesville, VA",38.033951,-78.49996,1,rooftop,1400,University Ave,,,Charlottesville,VA,Albemarle County,22903,US,Albemarle
"1400 UNIVERSITY AVE, Charlottesville, VA",38.033951,-78.49996,1,rooftop,1400,University Ave,,,Charlottesville,VA,Albemarle County,22903,US,Albemarle
"1900 EMMET ST N, Charlottesville, VA",38.060855,-78.492224,1,range_interpolation,1900,Emmet St N,,,Charlottesville,VA,Albemarle County,22903,US,TIGER/Line® dataset from the US Census Bureau
"1400 UNIVERSITY AVE, Charlottesville, VA",38.033951,-78.49996,1,rooftop,1400,University Ave,,,Charlottesville,VA,Albemarle County,22903,US,Albemarle
"200 E MAIN ST, Charlottesville, VA",38.030391,-78.480746,1,range_interpolation,200,E Main St,,,Charlottesville,VA,Albemarle County,22902,US,TIGER/Line® dataset from the US Census Bureau
"800 HARDY DR, Charlottesville, VA",38.033559,-78.490241,1,range_interpolation,800,Hardy Dr,,,Charlottesville,VA,Albemarle County,22903,US,TIGER/Line® dataset from the US Census Bureau
"1400 SHORT 18TH ST, Charlottesville, VA",38.026538,-78.462371,1,rooftop,1400,Short 18th St,,,Charlottesville,VA,Albemarle County,22902,US,City of Charlottesville
"2100 MICHIE DR, Charlottesville, VA",38.065057,-78.48225,1,rooftop,2100,Michie Dr,,,Charlottesville,VA,Albemarle County,22901,US,City of Charlottesville
"500 ROCKLAND AVE, Charlottesville, VA",38.019593,-78.486204,1,range_interpolation,500,Rockland Ave,,,Charlottesville,VA,Albemarle County,22902,US,TIGER/Line® dataset from the US Census Bureau
"1400 MIDLAND ST, Charlottesville, VA",38.020478,-78.467982,1,rooftop,1400,Midland St,,,Charlottesville,VA,Albemarle County,22902,US,City of Charlottesville
"500 SHAMROCK RD, Charlottesville, VA",38.023622,-78.506549,1,range_interpolation,500,Shamrock Rd,,,Charlottesville,VA,Albemarle County,22903,US,TIGER/Line® dataset from the US Census Bureau
"1100 EMMET ST N, Charlottesville, VA",38.051498,-78.5002,1,range_interpolation,1100,Emmet St N,,,Charlottesville,VA,Albemarle County,22903,US,TIGER/Line® dataset from the US Census Bureau
"400 E MAIN ST, Charlottesville, VA",38.029803,-78.479272,1,rooftop,400,E Main St,,,Charlottesville,VA,Albemarle County,22902,US,City of Charlottesville
"100 PEREGORY LN, Charlottesville, VA",38.005309,-78.494102,1,range_interpolation,100,Peregory Ln,,,Charlottesville,VA,Albemarle County,22902,US,TIGER/Line® dataset from the US Census Bureau
"800 ST CHARLES AVE, Charlottesville, VA",38.038928,-78.467584,1,range_interpolation,800,St Charles Ave,,,Charlottesville,VA,Albemarle County,22902,US,TIGER/Line® dataset from the US Census Bureau
"NA W MARKET ST / 2ND ST NW, Charlottesville, VA",38.026588,-78.48045,1,place,,,,,Charlottesville,VA,Charlottesville city,22902,US,TIGER/Line® dataset from the US Census Bureau
"200 OLD LYNCHBURG RD, Charlottesville, VA",38.015367,-78.514855,1,range_interpolation,200,Old Lynchburg Rd,,,Charlottesville,VA,Albemarle County,22903,US,TIGER/Line® dataset from the US Census Bureau
"100 CLARKE CT, Charlottesville, VA",38.02695,-78.515096,1,rooftop,100,Clarke Ct,,,Charlottesville,VA,Albemarle County,22901,US,City of Charlottesville
"1100 ROSSER AVE E, Charlottesville, VA",38.039875,-78.493575,0.81,nearest_rooftop_match,1104,Rosser Ave E,,,Charlottesville,VA,Albemarle County,22903,US,Virginia Geographic Information Network (VGIN)
"800 HARDY DR, Charlottesville, VA",38.033559,-78.490241,1,range_interpolation,800,Hardy Dr,,,Charlottesville,VA,Albemarle County,22903,US,TIGER/Line® dataset from the US Census Bureau
"800 W MAIN ST, Charlottesville, VA",38.031848,-78.490814,1,range_interpolation,800,W Main St,,,Charlottesville,VA,Albemarle County,22903,US,TIGER/Line® dataset from the US Census Bureau
"200 RIVERSIDE AVE, Charlottesville, VA",38.021466,-78.456341,1,range_interpolation,200,Riverside Ave,,,Charlottesville,VA,Albemarle County,22902,US,TIGER/Line® dataset from the US Census Bureau
"700 WALKER SQ, Charlottesville, VA",38.030203,-78.491156,1,rooftop,700,Walker Sq,,,Charlottesville,VA,Albemarle County,22902,US,City of Charlottesville
"1200 BELLEVIEW AVE, Charlottesville, VA",38.038739,-78.462244,1,range_interpolation,1200,Belleview Ave,,,Charlottesville,VA,Albemarle County,22901,US,TIGER/Line® dataset from the US Census Bureau
"1500 UNIVERSITY AVE, Charlottesville, VA",38.034988,-78.500296,0.72,nearest_rooftop_match,1501,University Ave,,,Charlottesville,VA,Albemarle County,22903,US,Virginia Geographic Information Network (VGIN)
"1300 FRANCIS FIFE WAY, Charlottesville, VA",38.026861,-78.501611,0.64,nearest_rooftop_match,1341,Francis Fife Way,,,Charlottesville,VA,Albemarle County,22903,US,Virginia Geographic Information Network (VGIN)
"100 5TH ST NE, Charlottesville, VA",38.030195,-78.477633,1,rooftop,100,5th St NE,,,Charlottesville,VA,Albemarle County,22902,US,City of Charlottesville
"1100 W MAIN ST, Charlottesville, VA",38.033001,-78.495935,1,range_interpolation,1100,W Main St,,,Charlottesville,VA,Albemarle County,22903,US,TIGER/Line® dataset from the US Census Bureau
"800 HARDY DR, Charlottesville, VA",38.033559,-78.490241,1,range_interpolation,800,Hardy Dr,,,Charlottesville,VA,Albemarle County,22903,US,TIGER/Line® dataset from the US Census Bureau
"2700 MCELROY DR, Charlottesville, VA",38.016724,-78.516252,1,rooftop,2700,McElroy Dr,,,Charlottesville,VA,Albemarle County,22903,US,City of Charlottesville
"1000 LOCUST AVE, Charlottesville, VA",38.040289,-78.462727,1,rooftop,1000,Locust Ave,,,Charlottesville,VA,Albemarle County,22901,US,City of Charlottesville
"1300 CARLTON AVE, Charlottesville, VA",38.022084,-78.469217,1,rooftop,1300,Carlton Ave,,,Charlottesville,VA,Albemarle County,22902,US,City of Charlottesville
"1900 SWANSON DR, Charlottesville, VA",38.06198,-78.494142,1,range_interpolation,1900,Swanson Dr,,,Charlottesville,VA,Albemarle County,22901,US,TIGER/Line® dataset from the US Census Bureau
"400 GARRETT ST, Charlottesville, VA",38.027754,-78.481638,1,rooftop,400,Garrett St,,,Charlottesville,VA,Albemarle County,22902,US,Virginia Geographic Information Network (VGIN)
"400 MONROE LN, Charlottesville, VA",38.031716,-78.50267,1,rooftop,400,Monroe Ln,,,Charlottesville,VA,Albemarle County,22903,US,Virginia Geographic Information Network (VGIN)
"NA 5TH ST SW / HARRIS RD, Charlottesville, VA",38.014345,-78.50005,0.97,intersection,,5th St SW,,,Charlottesville,VA,Albemarle County,22902,US,TIGER/Line® dataset from the US Census Bureau
"600 E MARKET ST, Charlottesville, VA",38.030267,-78.477549,1,range_interpolation,600,Market St E,,,Charlottesville,VA,Albemarle County,22902,US,TIGER/Line® dataset from the US Census Bureau
"800 W MAIN ST, Charlottesville, VA",38.031848,-78.490814,1,range_interpolation,800,W Main St,,,Charlottesville,VA,Albemarle County,22903,US,TIGER/Line® dataset from the US Census Bureau
"800 HARDY DR, Charlottesville, VA",38.033559,-78.490241,1,range_interpolation,800,Hardy Dr,,,Charlottesville,VA,Albemarle County,22903,US,TIGER/Line® dataset from the US Census Bureau
"1100 EMMET ST N, Charlottesville, VA",38.051498,-78.5002,1,range_interpolation,1100,Emmet St N,,,Charlottesville,VA,Albemarle County,22903,US,TIGER/Line® dataset from the US Census Bureau
"600 E MARKET ST, Charlottesville, VA",38.030267,-78.477549,1,range_interpolation,600,Market St E,,,Charlottesville,VA,Albemarle County,22902,US,TIGER/Line® dataset from the US Census Bureau
"1300 HAMPTON ST, Charlottesville, VA",38.020609,-78.471104,1,range_interpolation,1300,Hampton St,,,Charlottesville,VA,Albemarle County,22902,US,TIGER/Line® dataset from the US Census Bureau
"600 E MARKET ST, Charlottesville, VA",38.030267,-78.477549,1,range_interpolation,600,Market St E,,,Charlottesville,VA,Albemarle County,22902,US,TIGER/Line® dataset from the US Census Bureau
"2100 MICHIE DR, Charlottesville, VA",38.065057,-78.48225,1,rooftop,2100,Michie Dr,,,Charlottesville,VA,Albemarle County,22901,US,City of Charlottesville
"1500 6TH ST SE, Charlottesville, VA",38.018683,-78.484921,1,rooftop,1500,6th St SE,,,Charlottesville,VA,Albemarle County,22902,US,City of Charlottesville
"1000 ST CLAIR AVE, Charlottesville, VA",38.026588,-78.48045,0.33,place,,,,,Charlottesville,VA,Charlottesville city,22902,US,TIGER/Line® dataset from the US Census Bureau
"800 HARDY DR, Charlottesville, VA",38.033559,-78.490241,1,range_interpolation,800,Hardy Dr,,,Charlottesville,VA,Albemarle County,22903,US,TIGER/Line® dataset from the US Census Bureau
"2300 JEFFERSON PARK AVE, Charlottesville, VA",38.024268,-78.514442,1,rooftop,2300,Jefferson Park Ave,,,Charlottesville,VA,Albemarle County,22901,US,City of Charlottesville
"700 PROSPECT AVE, Charlottesville, VA",38.024646,-78.494399,1,rooftop,700,Prospect Ave,,,Charlottesville,VA,Albemarle County,22903,US,Virginia Geographic Information Network (VGIN)
"800 HARDY DR, Charlottesville, VA",38.033559,-78.490241,1,range_interpolation,800,Hardy Dr,,,Charlottesville,VA,Albemarle County,22903,US,TIGER/Line® dataset from the US Census Bureau
"1300 CARLTON AVE, Charlottesville, VA",38.022084,-78.469217,1,rooftop,1300,Carlton Ave,,,Charlottesville,VA,Albemarle County,22902,US,City of Charlottesville
"NA 7TH ST SW / DICE ST, Charlottesville, VA",38.030174,-78.490192,0.93,intersection,,7th St SW,,,Charlottesville,VA,Albemarle County,22903,US,TIGER/Line® dataset from the US Census Bureau
"200 RIVERSIDE AVE, Charlottesville, VA",38.021466,-78.456341,1,range_interpolation,200,Riverside Ave,,,Charlottesville,VA,Albemarle County,22902,US,TIGER/Line® dataset from the US Census Bureau
"200 RIDGE ST, Charlottesville, VA",38.029765,-78.485528,1,range_interpolation,200,State Rte 631,,,Charlottesville,VA,Albemarle County,22902,US,TIGER/Line® dataset from the US Census Bureau
"1600 EMMET ST N, Charlottesville, VA",38.057817,-78.493732,1,rooftop,1600,Emmet St N,,,Charlottesville,VA,Albemarle County,22901,US,City of Charlottesville
"700 HARRIS ST, Charlottesville, VA",38.03575,-78.484068,1,rooftop,700,Harris St,,,Charlottesville,VA,Albemarle County,22903,US,City of Charlottesville
"1700 HYDRAULIC RD, Charlottesville, VA",38.058532,-78.488855,1,range_interpolation,1700,Hydraulic Rd,,,Charlottesville,VA,Albemarle County,22901,US,TIGER/Line® dataset from the US Census Bureau
"500 W MAIN ST, Charlottesville, VA",38.030788,-78.487892,1,rooftop,500,W Main St,,,Charlottesville,VA,Albemarle County,22903,US,Virginia Geographic Information Network (VGIN)
"1100 EMMET ST N, Charlottesville, VA",38.051498,-78.5002,1,range_interpolation,1100,Emmet St N,,,Charlottesville,VA,Albemarle County,22903,US,TIGER/Line® dataset from the US Census Bureau
"700 PROSPECT AVE, Charlottesville, VA",38.024646,-78.494399,1,rooftop,700,Prospect Ave,,,Charlottesville,VA,Albemarle County,22903,US,Virginia Geographic Information Network (VGIN)
"500 E MARKET ST, Charlottesville, VA",38.030358,-78.478079,1,rooftop,500,E Market St,,,Charlottesville,VA,Albemarle County,22902,US,City of Charlottesville
"100 PIEDMONT AVE S, Charlottesville, VA",38.024329,-78.518797,1,range_interpolation,100,Piedmont Ave S,,,Charlottesville,VA,Albemarle County,22903,US,TIGER/Line® dataset from the US Census Bureau
"700 PROSPECT AVE, Charlottesville, VA",38.024646,-78.494399,1,rooftop,700,Prospect Ave,,,Charlottesville,VA,Albemarle County,22903,US,Virginia Geographic Information Network (VGIN)
"200 ZAN RD, Charlottesville, VA",38.064994,-78.486363,1,range_interpolation,200,Zan Rd,,,Charlottesville,VA,Albemarle County,22901,US,TIGER/Line® dataset from the US Census Bureau
"100 WILSON CT, Charlottesville, VA",38.065924,-78.475782,1,rooftop,100,Wilson Ct,,,Charlottesville,VA,Albemarle County,22901,US,City of Charlottesville
"900 EMMET ST, Charlottesville, VA",38.048623,-78.503011,0.9,rooftop,900,Emmet St N,,,Charlottesville,VA,Albemarle County,22903,US,City of Charlottesville
"NA PAOLI ST / 9TH ST NW, Charlottesville, VA",38.026588,-78.48045,1,place,,,,,Charlottesville,VA,Charlottesville city,22902,US,TIGER/Line® dataset from the US Census Bureau
"1100 ALTAVISTA AVE, Charlottesville, VA",38.017307,-78.47547,1,rooftop,1100,Altavista Ave,,,Charlottesville,VA,Albemarle County,22902,US,City of Charlottesville
"900 1ST ST S, Charlottesville, VA",38.022908,-78.485672,1,rooftop,900,1st St S,,,Charlottesville,VA,Albemarle County,22902,US,Virginia Geographic Information Network (VGIN)
"800 HARDY DR, Charlottesville, VA",38.033559,-78.490241,1,range_interpolation,800,Hardy Dr,,,Charlottesville,VA,Albemarle County,22903,US,TIGER/Line® dataset from the US Census Bureau
"200 5TH ST SW, Charlottesville, VA",38.030475,-78.488002,1,range_interpolation,200,5th St SW,,,Charlottesville,VA,Albemarle County,22903,US,TIGER/Line® dataset from the US Census Bureau
"800 W MAIN ST, Charlottesville, VA",38.031848,-78.490814,1,range_interpolation,800,W Main St,,,Charlottesville,VA,Albemarle County,22903,US,TIGER/Line® dataset from the US Census Bureau
"200 ZAN RD, Charlottesville, VA",38.064994,-78.486363,1,range_interpolation,200,Zan Rd,,,Charlottesville,VA,Albemarle County,22901,US,TIGER/Line® dataset from the US Census Bureau
"700 PROSPECT AVE, Charlottesville, VA",38.024646,-78.494399,1,rooftop,700,Prospect Ave,,,Charlottesville,VA,Albemarle County,22903,US,Virginia Geographic Information Network (VGIN)
"1700 DAIRY RD, Charlottesville, VA",38.055056,-78.486295,1,range_interpolation,1700,Dairy Rd,,,Charlottesville,VA,Albemarle County,22903,US,TIGER/Line® dataset from the US Census Bureau
"1900 ARLINGTON BLVD, Charlottesville, VA",38.047832,-78.504303,1,rooftop,1900,Arlington Blvd,,,Charlottesville,VA,Albemarle County,22903,US,City of Charlottesville
"1200 HOLMES AVE, Charlottesville, VA",38.045976,-78.460828,1,rooftop,1200,Holmes Ave,,,Charlottesville,VA,Albemarle County,22901,US,City of Charlottesville
"1600 EMMET ST N, Charlottesville, VA",38.057817,-78.493732,1,rooftop,1600,Emmet St N,,,Charlottesville,VA,Albemarle County,22901,US,City of Charlottesville
"1000 W MAIN ST, Charlottesville, VA",38.031987,-78.49551,1,rooftop,1000,W Main St,,,Charlottesville,VA,Albemarle County,22903,US,City of Charlottesville
"1700 HYDRAULIC RD, Charlottesville, VA",38.058532,-78.488855,1,range_interpolation,1700,Hydraulic Rd,,,Charlottesville,VA,Albemarle County,22901,US,TIGER/Line® dataset from the US Census Bureau
"500 MCINTIRE RD, Charlottesville, VA",38.035213,-78.481274,1,rooftop,500,McIntire Rd,,,Charlottesville,VA,Albemarle County,22901,US,City of Charlottesville
"1000 PAGE ST, Charlottesville, VA",38.035177,-78.493817,1,rooftop,1000,Page St,,,Charlottesville,VA,Albemarle County,22903,US,City of Charlottesville
"200 CARLTON RD, Charlottesville, VA",38.02338,-78.468643,1,rooftop,200,Carlton Rd,,,Charlottesville,VA,Albemarle County,22902,US,City of Charlottesville
"100 CHANCELLOR ST, Charlottesville, VA",38.035846,-78.50148,1,range_interpolation,100,Chancellor St,,,Charlottesville,VA,Albemarle County,22903,US,TIGER/Line® dataset from the US Census Bureau
"1100 SHERWOOD RD, Charlottesville, VA",38.044824,-78.480235,1,range_interpolation,1100,Sherwood Rd,,,Charlottesville,VA,Albemarle County,22903,US,TIGER/Line® dataset from the US Census Bureau
"1100 EMMET ST N, Charlottesville, VA",38.051498,-78.5002,1,range_interpolation,1100,Emmet St N,,,Charlottesville,VA,Albemarle County,22903,US,TIGER/Line® dataset from the US Census Bureau
"1300 RIVERDALE DR, Charlottesville, VA",38.035166,-78.461418,1,range_interpolation,1300,Riverdale Dr,,,Charlottesville,VA,Albemarle County,22902,US,TIGER/Line® dataset from the US Census Bureau
"1300 NUNLEY ST, Charlottesville, VA",38.02694,-78.502153,1,range_interpolation,1300,Nunley St,,,Charlottesville,VA,Albemarle County,22903,US,TIGER/Line® dataset from the US Census Bureau
"200 RIDGE MCINTIRE RD, Charlottesville, VA",38.031294,-78.484883,1,range_interpolation,200,Ridge Mcintire Rd,,,Charlottesville,VA,Albemarle County,22903,US,TIGER/Line® dataset from the US Census Bureau
"100 OLD PRESTON AVE, Charlottesville, VA",38.031221,-78.482987,0.7,range_interpolation,100,Preston Ave,,,Charlottesville,VA,Albemarle County,22903,US,TIGER/Line® dataset from the US Census Bureau
"300 AZALEA DR, Charlottesville, VA",38.012121,-78.512626,1,rooftop,300,Azalea Dr,,,Charlottesville,VA,Albemarle County,22903,US,City of Charlottesville
"500 NASSAU ST, Charlottesville, VA",38.020085,-78.465966,1,rooftop,500,Nassau St,,,Charlottesville,VA,Albemarle County,22902,US,City of Charlottesville
"1100 5TH ST SW, Charlottesville, VA",38.014495,-78.50005,1,range_interpolation,1100,5th St SW,,,Charlottesville,VA,Albemarle County,22902,US,TIGER/Line® dataset from the US Census Bureau
"100 RUGBY RD, Charlottesville, VA",38.040259,-78.501247,1,range_interpolation,100,Rugby Rd,,,Charlottesville,VA,Albemarle County,22903,US,TIGER/Line® dataset from the US Census Bureau
"100 FRANKLIN ST, Charlottesville, VA",38.02353,-78.461439,1,range_interpolation,100,Franklin St,,,Charlottesville,VA,Albemarle County,22902,US,TIGER/Line® dataset from the US Census Bureau
"1000 COTTONWOOD RD, Charlottesville, VA",38.043043,-78.466487,1,rooftop,1000,Cottonwood Rd,,,Charlottesville,VA,Albemarle County,22901,US,City of Charlottesville
"300 9TH ST SW, Charlottesville, VA",38.030035,-78.494688,1,rooftop,300,9th St SW,,,Charlottesville,VA,Albemarle County,22902,US,City of Charlottesville
"1500 UNIVERSITY AVE, Charlottesville, VA",38.034988,-78.500296,0.72,nearest_rooftop_match,1501,University Ave,,,Charlottesville,VA,Albemarle County,22903,US,Virginia Geographic Information Network (VGIN)
"1100 EMMET ST N, Charlottesville, VA",38.051498,-78.5002,1,range_interpolation,1100,Emmet St N,,,Charlottesville,VA,Albemarle County,22903,US,TIGER/Line® dataset from the US Census Bureau
"400 E MAIN ST, Charlottesville, VA",38.029803,-78.479272,1,rooftop,400,E Main St,,,Charlottesville,VA,Albemarle County,22902,US,City of Charlottesville
"900 EMMET ST N, Charlottesville, VA",38.048623,-78.503011,1,rooftop,900,Emmet St N,,,Charlottesville,VA,Albemarle County,22903,US,City of Charlottesville
"400 4TH ST NW, Charlottesville, VA",38.033577,-78.485453,1,range_interpolation,400,4th St NW,,,Charlottesville,VA,Albemarle County,22903,US,TIGER/Line® dataset from the US Census Bureau
"300 250 BYPASS, Charlottesville, VA",38.026588,-78.48045,0.33,place,,,,,Charlottesville,VA,Charlottesville city,22902,US,TIGER/Line® dataset from the US Census Bureau
"100 OLD PRESTON AVE, Charlottesville, VA",38.031221,-78.482987,0.7,range_interpolation,100,Preston Ave,,,Charlottesville,VA,Albemarle County,22903,US,TIGER/Line® dataset from the US Census Bureau
"200 E MAIN ST, Charlottesville, VA",38.030391,-78.480746,1,range_interpolation,200,E Main St,,,Charlottesville,VA,Albemarle County,22902,US,TIGER/Line® dataset from the US Census Bureau
"NA 2ND ST NE / E MARKET ST, Charlottesville, VA",38.031758,-78.481893,0.8,intersection,,2nd St NW,,,Charlottesville,VA,Albemarle County,22902,US,TIGER/Line® dataset from the US Census Bureau
"100 LANKFORD AVE, Charlottesville, VA",38.021191,-78.487098,1,rooftop,100,Lankford Ave,,,Charlottesville,VA,Albemarle County,22902,US,City of Charlottesville
"2300 STADIUM RD, Charlottesville, VA",38.028707,-78.518293,1,range_interpolation,2300,Stadium Rd,,,Charlottesville,VA,Albemarle County,22903,US,TIGER/Line® dataset from the US Census Bureau
"100 W MARKET ST, Charlottesville, VA",38.031682,-78.481145,0.8,range_interpolation,100,Market St,,,Charlottesville,VA,Albemarle County,22902,US,TIGER/Line® dataset from the US Census Bureau
"700 MAPLE ST, Charlottesville, VA",38.032453,-78.475436,1,range_interpolation,700,Maple St,,,Charlottesville,VA,Albemarle County,22902,US,TIGER/Line® dataset from the US Census Bureau
"1200 CEDARS CT, Charlottesville, VA",38.055196,-78.5015,1,range_interpolation,1200,Cedars Ct,,,Charlottesville,VA,Albemarle County,22903,US,TIGER/Line® dataset from the US Census Bureau
"2200 GREENBRIER DR, Charlottesville, VA",38.062023,-78.469685,1,rooftop,2200,Greenbrier Dr,,,Charlottesville,VA,Albemarle County,22901,US,City of Charlottesville
"1900 EMMET ST N, Charlottesville, VA",38.060855,-78.492224,1,range_interpolation,1900,Emmet St N,,,Charlottesville,VA,Albemarle County,22903,US,TIGER/Line® dataset from the US Census Bureau
"100 PERRY DR, Charlottesville, VA",38.036062,-78.479766,1,rooftop,100,Perry Dr,,,Charlottesville,VA,Albemarle County,22902,US,City of Charlottesville
"1800 HYDRAULIC RD, Charlottesville, VA",38.060222,-78.490328,1,range_interpolation,1800,Hydraulic Rd,,,Charlottesville,VA,Albemarle County,22901,US,TIGER/Line® dataset from the US Census Bureau
"100 BROOKWOOD DR, Charlottesville, VA",38.01789,-78.495359,1,range_interpolation,100,Brookwood Dr,,,Charlottesville,VA,Albemarle County,22902,US,TIGER/Line® dataset from the US Census Bureau
"700 WEST ST, Charlottesville, VA",38.034665,-78.48799,1,rooftop,700,West St,,,Charlottesville,VA,Albemarle County,22902,US,City of Charlottesville
"NA CLEVELAND AVE @ 5TH ST, Charlottesville, VA",38.026588,-78.48045,1,place,,,,,Charlottesville,VA,Charlottesville city,22902,US,TIGER/Line® dataset from the US Census Bureau
"2100 IVY RD, Charlottesville, VA",38.042471,-78.511905,1,rooftop,2100,Ivy Rd,,,Charlottesville,VA,Albemarle County,22902,US,City of Charlottesville
"100 PEREGORY LN, Charlottesville, VA",38.005309,-78.494102,1,range_interpolation,100,Peregory Ln,,,Charlottesville,VA,Albemarle County,22902,US,TIGER/Line® dataset from the US Census Bureau
"800 W MAIN ST, Charlottesville, VA",38.031848,-78.490814,1,range_interpolation,800,W Main St,,,Charlottesville,VA,Albemarle County,22903,US,TIGER/Line® dataset from the US Census Bureau
"500 W MAIN ST, Charlottesville, VA",38.030788,-78.487892,1,rooftop,500,W Main St,,,Charlottesville,VA,Albemarle County,22903,US,Virginia Geographic Information Network (VGIN)
"1400 MELBOURNE RD, Charlottesville, VA",38.052489,-78.475702,1,rooftop,1400,Melbourne Rd,,,Charlottesville,VA,Albemarle County,22902,US,City of Charlottesville
"1700 JEFFERSON PARK AVE, Charlottesville, VA",38.030234,-78.508221,1,rooftop,1700,Jefferson Park Ave,,,Charlottesville,VA,Albemarle County,22903,US,City of Charlottesville
"1700 KING MOUNTAIN RD, Charlottesville, VA",38.060071,-78.479574,1,rooftop,1700,King Mountain Rd,,,Charlottesville,VA,Albemarle County,22901,US,City of Charlottesville
"800 DALE AVE, Charlottesville, VA",38.037068,-78.486978,1,range_interpolation,800,Dale Ave,,,Charlottesville,VA,Albemarle County,22903,US,TIGER/Line® dataset from the US Census Bureau
"600 W MAIN ST, Charlottesville, VA",38.030966,-78.488496,1,rooftop,600,W Main St,,,Charlottesville,VA,Albemarle County,22903,US,Virginia Geographic Information Network (VGIN)
"NA THOMSON RD / EMMET ST S, Charlottesville, VA",38.026588,-78.48045,1,place,,,,,Charlottesville,VA,Charlottesville city,22902,US,TIGER/Line® dataset from the US Census Bureau
"500 W MAIN ST, Charlottesville, VA",38.030788,-78.487892,1,rooftop,500,W Main St,,,Charlottesville,VA,Albemarle County,22903,US,Virginia Geographic Information Network (VGIN)
"100 CHANCELLOR ST, Charlottesville, VA",38.035846,-78.50148,1,range_interpolation,100,Chancellor St,,,Charlottesville,VA,Albemarle County,22903,US,TIGER/Line® dataset from the US Census Bureau
"100 1ST ST S, Charlottesville, VA",38.030923,-78.481507,1,range_interpolation,100,1st St S,,,Charlottesville,VA,Albemarle County,22902,US,TIGER/Line® dataset from the US Census Bureau
"800 CONCORD AVE, Charlottesville, VA",38.038754,-78.485701,1,rooftop,800,Concord Ave,,,Charlottesville,VA,Albemarle County,22903,US,City of Charlottesville
"NA ROOSEVELT BROWN BLVD / GROVE ST, Charlottesville, VA",38.026588,-78.48045,1,place,,,,,Charlottesville,VA,Charlottesville city,22902,US,TIGER/Line® dataset from the US Census Bureau
"800 W MAIN ST, Charlottesville, VA",38.031848,-78.490814,1,range_interpolation,800,W Main St,,,Charlottesville,VA,Albemarle County,22903,US,TIGER/Line® dataset from the US Census Bureau
"200 6TH ST NW, Charlottesville, VA",38.031845,-78.487904,1,rooftop,200,6th St NW,,,Charlottesville,VA,Albemarle County,22903,US,Virginia Geographic Information Network (VGIN)
"1400 UNIVERSITY AVE, Charlottesville, VA",38.033951,-78.49996,1,rooftop,1400,University Ave,,,Charlottesville,VA,Albemarle County,22903,US,Albemarle
"100 LANKFORD AVE, Charlottesville, VA",38.021191,-78.487098,1,rooftop,100,Lankford Ave,,,Charlottesville,VA,Albemarle County,22902,US,City of Charlottesville
"200 ZAN RD, Charlottesville, VA",38.064994,-78.486363,1,range_interpolation,200,Zan Rd,,,Charlottesville,VA,Albemarle County,22901,US,TIGER/Line® dataset from the US Census Bureau
"200 ZAN RD, Charlottesville, VA",38.064994,-78.486363,1,range_interpolation,200,Zan Rd,,,Charlottesville,VA,Albemarle County,22901,US,TIGER/Line® dataset from the US Census Bureau
"200 W MAIN ST, Charlottesville, VA",38.030748,-78.482695,1,rooftop,200,W Main St,,,Charlottesville,VA,Albemarle County,22901,US,City of Charlottesville
"700 1ST ST S, Charlottesville, VA",38.02649,-78.484062,1,range_interpolation,700,1st St S,,,Charlottesville,VA,Albemarle County,22902,US,TIGER/Line® dataset from the US Census Bureau
"1400 MELBOURNE RD, Charlottesville, VA",38.052489,-78.475702,1,rooftop,1400,Melbourne Rd,,,Charlottesville,VA,Albemarle County,22902,US,City of Charlottesville
"1500 SHORT 18TH ST, Charlottesville, VA",38.025787,-78.460746,1,rooftop,1500,Short 18th St,,,Charlottesville,VA,Albemarle County,22902,US,City of Charlottesville
"500 HARRIS RD, Charlottesville, VA",38.014946,-78.503703,1,range_interpolation,500,Harris Rd,,,Charlottesville,VA,Albemarle County,22903,US,TIGER/Line® dataset from the US Census Bureau
"400 GARRETT ST, Charlottesville, VA",38.027754,-78.481638,1,rooftop,400,Garrett St,,,Charlottesville,VA,Albemarle County,22902,US,Virginia Geographic Information Network (VGIN)
"400 GARRETT ST, Charlottesville, VA",38.027754,-78.481638,1,rooftop,400,Garrett St,,,Charlottesville,VA,Albemarle County,22902,US,Virginia Geographic Information Network (VGIN)
"800 BOLLING AVE, Charlottesville, VA",38.022563,-78.478076,1,rooftop,800,Bolling Ave,,,Charlottesville,VA,Albemarle County,22902,US,City of Charlottesville
"100 BRANDYWINE CT, Charlottesville, VA",38.057707,-78.487433,1,rooftop,100,Brandywine Ct,,,Charlottesville,VA,Albemarle County,22901,US,City of Charlottesville
"1100 LOCUST AVE, Charlottesville, VA",38.042593,-78.460131,1,rooftop,1100,Locust Ave,,,Charlottesville,VA,Albemarle County,22901,US,City of Charlottesville
"900 MONTICELLO RD, Charlottesville, VA",38.023122,-78.473462,1,range_interpolation,900,Monticello Rd,,,Charlottesville,VA,Albemarle County,22902,US,TIGER/Line® dataset from the US Census Bureau
"200 W MAIN ST, Charlottesville, VA",38.030748,-78.482695,1,rooftop,200,W Main St,,,Charlottesville,VA,Albemarle County,22901,US,City of Charlottesville
"900 5TH ST SW, Charlottesville, VA",38.021234,-78.493889,1,range_interpolation,900,5th St SW,,,Charlottesville,VA,Albemarle County,22902,US,TIGER/Line® dataset from the US Census Bureau
"500 W MAIN ST, Charlottesville, VA",38.030788,-78.487892,1,rooftop,500,W Main St,,,Charlottesville,VA,Albemarle County,22903,US,Virginia Geographic Information Network (VGIN)
"1200 W MAIN ST, Charlottesville, VA",38.032645,-78.496684,1,rooftop,1200,W Main St,,,Charlottesville,VA,Albemarle County,22903,US,Virginia Geographic Information Network (VGIN)
"400 250 BYPASS, Charlottesville, VA",38.045382,-78.477166,0.67,nearest_rooftop_match,425,250th Byp,,,Charlottesville,VA,Albemarle County,22901,US,Virginia Geographic Information Network (VGIN)
"600 E MARKET ST, Charlottesville, VA",38.030267,-78.477549,1,range_interpolation,600,Market St E,,,Charlottesville,VA,Albemarle County,22902,US,TIGER/Line® dataset from the US Census Bureau
"100 W MAIN ST, Charlottesville, VA",38.030482,-78.481848,1,rooftop,100,W Main St,,,Charlottesville,VA,Albemarle County,22902,US,Virginia Geographic Information Network (VGIN)
"100 BURNET ST, Charlottesville, VA",38.02393,-78.487254,1,rooftop,100,Burnet St,,,Charlottesville,VA,Albemarle County,22902,US,City of Charlottesville
"800 BELMONT AVE, Charlottesville, VA",38.024104,-78.477024,1,rooftop,800,Belmont Ave,,,Charlottesville,VA,Albemarle County,22902,US,City of Charlottesville
"1000 BELMONT AVE, Charlottesville, VA",38.022736,-78.473958,1,rooftop,1000,Belmont Ave,,,Charlottesville,VA,Albemarle County,22902,US,City of Charlottesville
"1500 6TH ST SE, Charlottesville, VA",38.018683,-78.484921,1,rooftop,1500,6th St SE,,,Charlottesville,VA,Albemarle County,22902,US,City of Charlottesville
"1600 OXFORD RD, Charlottesville, VA",38.047248,-78.487064,1,rooftop,1600,Oxford Rd,,,Charlottesville,VA,Albemarle County,22903,US,City of Charlottesville
"1000 RIDGE ST, Charlottesville, VA",38.019141,-78.49392,1,rooftop,1000,Ridge St,,,Charlottesville,VA,Albemarle County,22902,US,City of Charlottesville
"900 W MAIN ST, Charlottesville, VA",38.031799,-78.494644,1,rooftop,900,W Main St,,,Charlottesville,VA,Albemarle County,22903,US,City of Charlottesville
"NA STADIUM RD / DUNOVA CT, Charlottesville, VA",38.026588,-78.48045,1,place,,,,,Charlottesville,VA,Charlottesville city,22902,US,TIGER/Line® dataset from the US Census Bureau
"300 GARRETT ST, Charlottesville, VA",38.028589,-78.481736,1,range_interpolation,300,Garrett St,,,Charlottesville,VA,Albemarle County,22902,US,TIGER/Line® dataset from the US Census Bureau
"1000 LINDEN AVE, Charlottesville, VA",38.014407,-78.470484,1,rooftop,1000,Linden Ave,,,Charlottesville,VA,Albemarle County,22902,US,City of Charlottesville
"800 SHAMROCK RD, Charlottesville, VA",38.01879,-78.500146,1,rooftop,800,Shamrock Rd,,,Charlottesville,VA,Albemarle County,22903,US,City of Charlottesville
"1200 GRADY AVE, Charlottesville, VA",38.039578,-78.494309,1,range_interpolation,1200,Grady Ave,,,Charlottesville,VA,Albemarle County,22903,US,TIGER/Line® dataset from the US Census Bureau
"900 EMMET ST N, Charlottesville, VA",38.048623,-78.503011,1,rooftop,900,Emmet St N,,,Charlottesville,VA,Albemarle County,22903,US,City of Charlottesville
"400 RIVERSIDE AVE, Charlottesville, VA",38.026902,-78.454841,1,rooftop,400,Riverside Ave,,,Charlottesville,VA,Albemarle County,22902,US,City of Charlottesville
"300 13TH ST NW, Charlottesville, VA",38.035783,-78.497323,1,range_interpolation,300,13th St NW,,,Charlottesville,VA,Albemarle County,22903,US,TIGER/Line® dataset from the US Census Bureau
"100 EMMET ST N, Charlottesville, VA",38.039966,-78.506381,1,rooftop,100,Emmet St N,,,Charlottesville,VA,Albemarle County,22901,US,City of Charlottesville
"1100 SHERWOOD RD, Charlottesville, VA",38.044824,-78.480235,1,range_interpolation,1100,Sherwood Rd,,,Charlottesville,VA,Albemarle County,22903,US,TIGER/Line® dataset from the US Census Bureau
"600 E MARKET ST, Charlottesville, VA",38.030267,-78.477549,1,range_interpolation,600,Market St E,,,Charlottesville,VA,Albemarle County,22902,US,TIGER/Line® dataset from the US Census Bureau
"300 15TH ST NW, Charlottesville, VA",38.036158,-78.499392,1,range_interpolation,300,15th St NW,,,Charlottesville,VA,Albemarle County,22903,US,TIGER/Line® dataset from the US Census Bureau
"2300 FONTAINE AVE, Charlottesville, VA",38.025595,-78.516645,1,rooftop,2300,Fontaine Ave,,,Charlottesville,VA,Albemarle County,22901,US,City of Charlottesville
"1100 5TH ST SW, Charlottesville, VA",38.014495,-78.50005,1,range_interpolation,1100,5th St SW,,,Charlottesville,VA,Albemarle County,22902,US,TIGER/Line® dataset from the US Census Bureau
"400 PARK ST, Charlottesville, VA",38.031779,-78.476942,1,range_interpolation,400,Park St,,,Charlottesville,VA,Albemarle County,22902,US,TIGER/Line® dataset from the US Census Bureau
"2100 MICHIE DR, Charlottesville, VA",38.065057,-78.48225,1,rooftop,2100,Michie Dr,,,Charlottesville,VA,Albemarle County,22901,US,City of Charlottesville
"800 HARDY DR, Charlottesville, VA",38.033559,-78.490241,1,range_interpolation,800,Hardy Dr,,,Charlottesville,VA,Albemarle County,22903,US,TIGER/Line® dataset from the US Census Bureau
"400 RIDGE ST, Charlottesville, VA",38.027964,-78.486163,1,rooftop,400,Ridge St,,,Charlottesville,VA,Albemarle County,22903,US,City of Charlottesville
"1800 EMMET ST N, Charlottesville, VA",38.059769,-78.493071,1,range_interpolation,1800,Emmet St N,,,Charlottesville,VA,Albemarle County,22903,US,TIGER/Line® dataset from the US Census Bureau
"3500 W MONACAN DR, Charlottesville, VA",38.096671,-78.462462,1,rooftop,3500,W Monacan Dr,,,Charlottesville,VA,Albemarle County,22901,US,Albemarle
"100 MADISON LN, Charlottesville, VA",38.036242,-78.502401,1,range_interpolation,100,Madison Ln,,,Charlottesville,VA,Albemarle County,22903,US,TIGER/Line® dataset from the US Census Bureau
"600 PRESTON AVE, Charlottesville, VA",38.034938,-78.486011,1,rooftop,600,Preston Ave,,,Charlottesville,VA,Albemarle County,22903,US,City of Charlottesville
"500 W MAIN ST, Charlottesville, VA",38.030788,-78.487892,1,rooftop,500,W Main St,,,Charlottesville,VA,Albemarle County,22903,US,Virginia Geographic Information Network (VGIN)
"300 CARLTON RD, Charlottesville, VA",38.022432,-78.469845,1,rooftop,300,Carlton Rd,,,Charlottesville,VA,Albemarle County,22902,US,City of Charlottesville
"1000 ALTAVISTA AVE, Charlottesville, VA",38.018098,-78.477234,1,rooftop,1000,Altavista Ave,,,Charlottesville,VA,Albemarle County,22902,US,City of Charlottesville
"1500 UNIVERSITY AVE, Charlottesville, VA",38.034988,-78.500296,0.72,nearest_rooftop_match,1501,University Ave,,,Charlottesville,VA,Albemarle County,22903,US,Virginia Geographic Information Network (VGIN)
"200 RIDGE ST, Charlottesville, VA",38.029765,-78.485528,1,range_interpolation,200,State Rte 631,,,Charlottesville,VA,Albemarle County,22902,US,TIGER/Line® dataset from the US Census Bureau
"100 MADISON LN, Charlottesville, VA",38.036242,-78.502401,1,range_interpolation,100,Madison Ln,,,Charlottesville,VA,Albemarle County,22903,US,TIGER/Line® dataset from the US Census Bureau
"100 OLD LYNCHBURG RD, Charlottesville, VA",38.018706,-78.513221,1,range_interpolation,100,Old Lynchburg Rd,,,Charlottesville,VA,Albemarle County,22903,US,TIGER/Line® dataset from the US Census Bureau
"200 RIDGE ST, Charlottesville, VA",38.029765,-78.485528,1,range_interpolation,200,State Rte 631,,,Charlottesville,VA,Albemarle County,22902,US,TIGER/Line® dataset from the US Census Bureau
"100 4TH ST NW, Charlottesville, VA",38.030473,-78.486581,1,range_interpolation,100,4th St NW,,,Charlottesville,VA,Albemarle County,22903,US,TIGER/Line® dataset from the US Census Bureau
"100 MCINTIRE PARK DR, Charlottesville, VA",38.026588,-78.48045,0.33,place,,,,,Charlottesville,VA,Charlottesville city,22902,US,TIGER/Line® dataset from the US Census Bureau
"1200 RIVER VISTA AVE, Charlottesville, VA",38.038224,-78.462871,1,range_interpolation,1200,River Vista Ave,,,Charlottesville,VA,Albemarle County,22901,US,TIGER/Line® dataset from the US Census Bureau
"200 RIDGE ST, Charlottesville, VA",38.029765,-78.485528,1,range_interpolation,200,State Rte 631,,,Charlottesville,VA,Albemarle County,22902,US,TIGER/Line® dataset from the US Census Bureau
"100 W MAIN ST, Charlottesville, VA",38.030482,-78.481848,1,rooftop,100,W Main St,,,Charlottesville,VA,Albemarle County,22902,US,Virginia Geographic Information Network (VGIN)
"300 13TH ST NW, Charlottesville, VA",38.035783,-78.497323,1,range_interpolation,300,13th St NW,,,Charlottesville,VA,Albemarle County,22903,US,TIGER/Line® dataset from the US Census Bureau
"800 ORANGEDALE AVE, Charlottesville, VA",38.021523,-78.497497,1,rooftop,800,Orangedale Ave,,,Charlottesville,VA,Albemarle County,22903,US,City of Charlottesville
"900 W MAIN ST, Charlottesville, VA",38.031799,-78.494644,1,rooftop,900,W Main St,,,Charlottesville,VA,Albemarle County,22903,US,City of Charlottesville
"2200 WAYNE AVE, Charlottesville, VA",38.06034,-78.496723,1,range_interpolation,2200,Wayne Ave,,,Charlottesville,VA,Albemarle County,22901,US,TIGER/Line® dataset from the US Census Bureau
"2200 FONTAINE AVE, Charlottesville, VA",38.026076,-78.515987,1,range_interpolation,2200,Fontaine Ave,,,Charlottesville,VA,Albemarle County,22903,US,TIGER/Line® dataset from the US Census Bureau
"1100 RIVER CT, Charlottesville, VA",38.042362,-78.456287,1,rooftop,1100,River Ct,,,Charlottesville,VA,Albemarle County,22901,US,City of Charlottesville
"1000 SEMINOLE TRL, Charlottesville, VA",38.063429,-78.490567,1,range_interpolation,1000,Seminole Trl,,,Charlottesville,VA,Albemarle County,22909,US,TIGER/Line® dataset from the US Census Bureau
"1100 SEMINOLE TRL, Charlottesville, VA",38.066776,-78.49006,0.76,nearest_rooftop_match,1070,Seminole Trl,,,Charlottesville,VA,Albemarle County,22901,US,Virginia Geographic Information Network (VGIN)
"1500 DAIRY RD, Charlottesville, VA",38.052849,-78.48642,1,range_interpolation,1500,Dairy Rd,,,Charlottesville,VA,Albemarle County,22903,US,TIGER/Line® dataset from the US Census Bureau
"1400 MELBOURNE RD, Charlottesville, VA",38.052489,-78.475702,1,rooftop,1400,Melbourne Rd,,,Charlottesville,VA,Albemarle County,22902,US,City of Charlottesville
"1100 PAGE ST, Charlottesville, VA",38.035521,-78.495052,1,rooftop,1100,Page St,,,Charlottesville,VA,Albemarle County,22903,US,City of Charlottesville
"600 E MARKET ST, Charlottesville, VA",38.030267,-78.477549,1,range_interpolation,600,Market St E,,,Charlottesville,VA,Albemarle County,22902,US,TIGER/Line® dataset from the US Census Bureau
"500 W MAIN ST, Charlottesville, VA",38.030788,-78.487892,1,rooftop,500,W Main St,,,Charlottesville,VA,Albemarle County,22903,US,Virginia Geographic Information Network (VGIN)
"800 BOLLING AVE, Charlottesville, VA",38.022563,-78.478076,1,rooftop,800,Bolling Ave,,,Charlottesville,VA,Albemarle County,22902,US,City of Charlottesville
"100 10TH ST NW, Charlottesville, VA",38.03245,-78.494766,1,range_interpolation,100,10th St NW,,,Charlottesville,VA,Albemarle County,22903,US,TIGER/Line® dataset from the US Census Bureau
"1300 HAMPTON ST, Charlottesville, VA",38.020609,-78.471104,1,range_interpolation,1300,Hampton St,,,Charlottesville,VA,Albemarle County,22902,US,TIGER/Line® dataset from the US Census Bureau
"NA PARK ST / E HIGH ST, Charlottesville, VA",38.026588,-78.48045,1,place,,,,,Charlottesville,VA,Charlottesville city,22902,US,TIGER/Line® dataset from the US Census Bureau
"200 E MAIN ST, Charlottesville, VA",38.030391,-78.480746,1,range_interpolation,200,E Main St,,,Charlottesville,VA,Albemarle County,22902,US,TIGER/Line® dataset from the US Census Bureau
"1000 PRESTON AVE, Charlottesville, VA",38.039186,-78.491586,1,rooftop,1000,Preston Ave,,,Charlottesville,VA,Albemarle County,22901,US,City of Charlottesville
"1900 EMMET ST N, Charlottesville, VA",38.060855,-78.492224,1,range_interpolation,1900,Emmet St N,,,Charlottesville,VA,Albemarle County,22903,US,TIGER/Line® dataset from the US Census Bureau
"100 14TH ST NW, Charlottesville, VA",38.034122,-78.499326,1,rooftop,100,14th St NW,,,Charlottesville,VA,Albemarle County,22903,US,Virginia Geographic Information Network (VGIN)
"200 CAMELIA DR, Charlottesville, VA",38.013946,-78.510844,1,rooftop,200,Camellia Dr,,,Charlottesville,VA,Albemarle County,22901,US,City of Charlottesville
"2000 STADIUM RD, Charlottesville, VA",38.02842,-78.514475,1,rooftop,2000,Stadium Rd,,,Charlottesville,VA,Albemarle County,22901,US,City of Charlottesville
"800 W MAIN ST, Charlottesville, VA",38.031848,-78.490814,1,range_interpolation,800,W Main St,,,Charlottesville,VA,Albemarle County,22903,US,TIGER/Line® dataset from the US Census Bureau
"500 PARK ST, Charlottesville, VA",38.03394,-78.475337,1,rooftop,500,Park St,,,Charlottesville,VA,Albemarle County,22902,US,City of Charlottesville
"500 VALLEY RD, Charlottesville, VA",38.030818,-78.505016,1,rooftop,500,Valley Rd,,,Charlottesville,VA,Albemarle County,22901,US,City of Charlottesville
"300 RIVERSIDE AVE, Charlottesville, VA",38.02387,-78.455313,1,rooftop,300,Riverside Ave,,,Charlottesville,VA,Albemarle County,22902,US,City of Charlottesville
"1100 5TH ST SW, Charlottesville, VA",38.014495,-78.50005,1,range_interpolation,1100,5th St SW,,,Charlottesville,VA,Albemarle County,22902,US,TIGER/Line® dataset from the US Census Bureau
"700 WALNUT ST, Charlottesville, VA",38.024483,-78.472854,1,range_interpolation,700,Walnut St,,,Charlottesville,VA,Albemarle County,22902,US,TIGER/Line® dataset from the US Census Bureau
"2500 WOODLAND DR, Charlottesville, VA",38.020411,-78.512573,1,range_interpolation,2500,Woodland Dr,,,Charlottesville,VA,Albemarle County,22903,US,TIGER/Line® dataset from the US Census Bureau
"800 W MAIN ST, Charlottesville, VA",38.031848,-78.490814,1,range_interpolation,800,W Main St,,,Charlottesville,VA,Albemarle County,22903,US,TIGER/Line® dataset from the US Census Bureau
"1300 NUNLEY ST, Charlottesville, VA",38.02694,-78.502153,1,range_interpolation,1300,Nunley St,,,Charlottesville,VA,Albemarle County,22903,US,TIGER/Line® dataset from the US Census Bureau
"400 LOCUST AVE, Charlottesville, VA",38.031952,-78.470674,1,rooftop,400,Locust Ave,,,Charlottesville,VA,Albemarle County,22902,US,City of Charlottesville
"200 RIDGE MCINTIRE RD, Charlottesville, VA",38.031294,-78.484883,1,range_interpolation,200,Ridge Mcintire Rd,,,Charlottesville,VA,Albemarle County,22903,US,TIGER/Line® dataset from the US Census Bureau
"900 EMMET ST N, Charlottesville, VA",38.048623,-78.503011,1,rooftop,900,Emmet St N,,,Charlottesville,VA,Albemarle County,22903,US,City of Charlottesville
"100 W SOUTH ST, Charlottesville, VA",38.029288,-78.482396,1,rooftop,100,W South St,,,Charlottesville,VA,Albemarle County,22902,US,City of Charlottesville
"1400 RUGBY AVE, Charlottesville, VA",38.044705,-78.480152,1,range_interpolation,1400,Rugby Ave,,,Charlottesville,VA,Albemarle County,22903,US,TIGER/Line® dataset from the US Census Bureau
"700 PROSPECT AVE, Charlottesville, VA",38.024646,-78.494399,1,rooftop,700,Prospect Ave,,,Charlottesville,VA,Albemarle County,22903,US,Virginia Geographic Information Network (VGIN)
"1000 MONTICELLO RD, Charlottesville, VA",38.023547,-78.473137,1,rooftop,1000,Monticello Rd,,,Charlottesville,VA,Albemarle County,22902,US,City of Charlottesville
"1700 UNIVERSITY AVE, Charlottesville, VA",38.035796,-78.502112,0.82,nearest_rooftop_match,1702,University Ave,,,Charlottesville,VA,Albemarle County,22903,US,Virginia Geographic Information Network (VGIN)
"600 E MARKET ST, Charlottesville, VA",38.030267,-78.477549,1,range_interpolation,600,Market St E,,,Charlottesville,VA,Albemarle County,22902,US,TIGER/Line® dataset from the US Census Bureau
"1400 UNIVERSITY AVE, Charlottesville, VA",38.033951,-78.49996,1,rooftop,1400,University Ave,,,Charlottesville,VA,Albemarle County,22903,US,Albemarle
"2100 IVY RD, Charlottesville, VA",38.042471,-78.511905,1,rooftop,2100,Ivy Rd,,,Charlottesville,VA,Albemarle County,22902,US,City of Charlottesville
"1200 CARLTON AVE, Charlottesville, VA",38.023408,-78.471574,1,rooftop,1200,Carlton Ave,,,Charlottesville,VA,Albemarle County,22902,US,City of Charlottesville
"200 E MAIN ST, Charlottesville, VA",38.030391,-78.480746,1,range_interpolation,200,E Main St,,,Charlottesville,VA,Albemarle County,22902,US,TIGER/Line® dataset from the US Census Bureau
"200 1ST ST N, Charlottesville, VA",38.031382,-78.481145,1,range_interpolation,200,1st St N,,,Charlottesville,VA,Albemarle County,22902,US,TIGER/Line® dataset from the US Census Bureau
"1700 CHESAPEAKE ST, Charlottesville, VA",38.024044,-78.458912,1,rooftop,1700,Chesapeake St,,,Charlottesville,VA,Albemarle County,22902,US,City of Charlottesville
"600 E MARKET ST, Charlottesville, VA",38.030267,-78.477549,1,range_interpolation,600,Market St E,,,Charlottesville,VA,Albemarle County,22902,US,TIGER/Line® dataset from the US Census Bureau
"1000 BELMONT AVE, Charlottesville, VA",38.022736,-78.473958,1,rooftop,1000,Belmont Ave,,,Charlottesville,VA,Albemarle County,22902,US,City of Charlottesville
"1000 PRESTON AVE, Charlottesville, VA",38.039186,-78.491586,1,rooftop,1000,Preston Ave,,,Charlottesville,VA,Albemarle County,22901,US,City of Charlottesville
"300 13TH ST NW, Charlottesville, VA",38.035783,-78.497323,1,range_interpolation,300,13th St NW,,,Charlottesville,VA,Albemarle County,22903,US,TIGER/Line® dataset from the US Census Bureau
"NA GARRETT ST / 2ND ST SE, Charlottesville, VA",38.026588,-78.48045,1,place,,,,,Charlottesville,VA,Charlottesville city,22902,US,TIGER/Line® dataset from the US Census Bureau
"700 ORANGEDALE AVE, Charlottesville, VA",38.024675,-78.495376,1,rooftop,700,Orangedale Ave,,,Charlottesville,VA,Albemarle County,22903,US,City of Charlottesville
"300 13TH ST NW, Charlottesville, VA",38.035783,-78.497323,1,range_interpolation,300,13th St NW,,,Charlottesville,VA,Albemarle County,22903,US,TIGER/Line® dataset from the US Census Bureau
"1100 GORDON AVE, Charlottesville, VA",38.03813,-78.494226,1,rooftop,1100,Gordon Ave,,,Charlottesville,VA,Albemarle County,22903,US,City of Charlottesville
"700 PARK ST, Charlottesville, VA",38.036958,-78.474601,0.82,nearest_rooftop_match,702,Park St,,,Charlottesville,VA,Albemarle County,22902,US,Virginia Geographic Information Network (VGIN)
"1900 STADIUM RD, Charlottesville, VA",38.029265,-78.513082,1,rooftop,1900,Stadium Rd,,,Charlottesville,VA,Albemarle County,22903,US,City of Charlottesville
"100 W SOUTH ST, Charlottesville, VA",38.029288,-78.482396,1,rooftop,100,W South St,,,Charlottesville,VA,Albemarle County,22902,US,City of Charlottesville
"1000 PAGE ST, Charlottesville, VA",38.035177,-78.493817,1,rooftop,1000,Page St,,,Charlottesville,VA,Albemarle County,22903,US,City of Charlottesville
"1600 E MARKET ST, Charlottesville, VA",38.023804,-78.462147,1,rooftop,1600,E Market St,,,Charlottesville,VA,Albemarle County,22902,US,City of Charlottesville
"2100 IVY RD, Charlottesville, VA",38.042471,-78.511905,1,rooftop,2100,Ivy Rd,,,Charlottesville,VA,Albemarle County,22902,US,City of Charlottesville
"1400 EMMET ST N, Charlottesville, VA",38.055785,-78.496363,1,range_interpolation,1400,Emmet St N,,,Charlottesville,VA,Albemarle County,22903,US,TIGER/Line® dataset from the US Census Bureau
"900 1ST ST S, Charlottesville, VA",38.022908,-78.485672,1,rooftop,900,1st St S,,,Charlottesville,VA,Albemarle County,22902,US,Virginia Geographic Information Network (VGIN)
"800 RIDGE ST, Charlottesville, VA",38.022211,-78.491258,1,rooftop,800,Ridge St,,,Charlottesville,VA,Albemarle County,22902,US,City of Charlottesville
"800 RIDGE ST, Charlottesville, VA",38.022211,-78.491258,1,rooftop,800,Ridge St,,,Charlottesville,VA,Albemarle County,22902,US,City of Charlottesville
"1000 MONTICELLO RD, Charlottesville, VA",38.023547,-78.473137,1,rooftop,1000,Monticello Rd,,,Charlottesville,VA,Albemarle County,22902,US,City of Charlottesville
"800 5TH ST SW, Charlottesville, VA",38.022987,-78.491948,1,rooftop,800,5th St SW,,,Charlottesville,VA,Albemarle County,22902,US,City of Charlottesville
"800 CABELL AVE, Charlottesville, VA",38.042215,-78.496417,1,range_interpolation,800,Cabell Ave,,,Charlottesville,VA,Albemarle County,22903,US,TIGER/Line® dataset from the US Census Bureau
"800 W MAIN ST, Charlottesville, VA",38.031848,-78.490814,1,range_interpolation,800,W Main St,,,Charlottesville,VA,Albemarle County,22903,US,TIGER/Line® dataset from the US Census Bureau
"1200 CEDARS CT, Charlottesville, VA",38.055196,-78.5015,1,range_interpolation,1200,Cedars Ct,,,Charlottesville,VA,Albemarle County,22903,US,TIGER/Line® dataset from the US Census Bureau
"1100 5TH ST SW, Charlottesville, VA",38.014495,-78.50005,1,range_interpolation,1100,5th St SW,,,Charlottesville,VA,Albemarle County,22902,US,TIGER/Line® dataset from the US Census Bureau
"1900 EMMET ST N, Charlottesville, VA",38.060855,-78.492224,1,range_interpolation,1900,Emmet St N,,,Charlottesville,VA,Albemarle County,22903,US,TIGER/Line® dataset from the US Census Bureau
"100 5TH ST SE, Charlottesville, VA",38.029691,-78.478432,1,rooftop,100,5th St SE,,,Charlottesville,VA,Albemarle County,22901,US,City of Charlottesville
"NA RIVES ST / HAMPTON ST, Charlottesville, VA",38.026588,-78.48045,1,place,,,,,Charlottesville,VA,Charlottesville city,22902,US,TIGER/Line® dataset from the US Census Bureau
"600 E MARKET ST, Charlottesville, VA",38.030267,-78.477549,1,range_interpolation,600,Market St E,,,Charlottesville,VA,Albemarle County,22902,US,TIGER/Line® dataset from the US Census Bureau
"1100 WERTLAND ST, Charlottesville, VA",38.034035,-78.495713,1,rooftop,1100,Wertland St,,,Charlottesville,VA,Albemarle County,22903,US,City of Charlottesville
"1000 CHERRY AVE, Charlottesville, VA",38.026722,-78.497519,1,rooftop,1000,Cherry Ave,,,Charlottesville,VA,Albemarle County,22903,US,City of Charlottesville
"1600 ST ANNES RD, Charlottesville, VA",38.055852,-78.483767,1,range_interpolation,1600,St Annes Rd,,,Charlottesville,VA,Albemarle County,22901,US,TIGER/Line® dataset from the US Census Bureau
"300 14TH ST NW, Charlottesville, VA",38.035916,-78.498522,1,range_interpolation,300,14th St NW,,,Charlottesville,VA,Albemarle County,22903,US,TIGER/Line® dataset from the US Census Bureau
"1500 ROSA TER, Charlottesville, VA",38.019814,-78.486029,1,range_interpolation,1500,Rosa Ter,,,Charlottesville,VA,Albemarle County,22902,US,TIGER/Line® dataset from the US Census Bureau
"1900 ARLINGTON BLVD, Charlottesville, VA",38.047832,-78.504303,1,rooftop,1900,Arlington Blvd,,,Charlottesville,VA,Albemarle County,22903,US,City of Charlottesville
"400 4TH ST NW, Charlottesville, VA",38.033577,-78.485453,1,range_interpolation,400,4th St NW,,,Charlottesville,VA,Albemarle County,22903,US,TIGER/Line® dataset from the US Census Bureau
"600 E WATER ST, Charlottesville, VA",38.028772,-78.477348,1,rooftop,600,E Water St,,,Charlottesville,VA,Albemarle County,22903,US,City of Charlottesville
"500 HARRIS RD, Charlottesville, VA",38.014946,-78.503703,1,range_interpolation,500,Harris Rd,,,Charlottesville,VA,Albemarle County,22903,US,TIGER/Line® dataset from the US Census Bureau
"1000 HOLMES AVE, Charlottesville, VA",38.042693,-78.465159,1,range_interpolation,1000,Holmes Ave,,,Charlottesville,VA,Albemarle County,22901,US,TIGER/Line® dataset from the US Census Bureau
"100 MONTE VISTA AVE, Charlottesville, VA",38.017288,-78.512673,1,rooftop,100,Monte Vista Ave,,,Charlottesville,VA,Albemarle County,22903,US,City of Charlottesville
"1500 TRAILRIDGE RD, Charlottesville, VA",38.023462,-78.50499,1,rooftop,1500,Trailridge Rd,,,Charlottesville,VA,Albemarle County,22903,US,City of Charlottesville
"NA CARLTON RD / HAMPTON ST, Charlottesville, VA",38.026588,-78.48045,1,place,,,,,Charlottesville,VA,Charlottesville city,22902,US,TIGER/Line® dataset from the US Census Bureau
"400 GARRETT ST, Charlottesville, VA",38.027754,-78.481638,1,rooftop,400,Garrett St,,,Charlottesville,VA,Albemarle County,22902,US,Virginia Geographic Information Network (VGIN)
"800 250 BYPASS, Charlottesville, VA",38.026588,-78.48045,0.33,place,,,,,Charlottesville,VA,Charlottesville city,22902,US,TIGER/Line® dataset from the US Census Bureau
"700 ROCKLAND AVE, Charlottesville, VA",38.017903,-78.48365,1,rooftop,700,Rockland Ave,,,Charlottesville,VA,Albemarle County,22902,US,City of Charlottesville
"1400 MONTICELLO RD, Charlottesville, VA",38.019358,-78.472299,1,rooftop,1400,Monticello Rd,,,Charlottesville,VA,Albemarle County,22902,US,City of Charlottesville
"800 HARDY DR, Charlottesville, VA",38.033559,-78.490241,1,range_interpolation,800,Hardy Dr,,,Charlottesville,VA,Albemarle County,22903,US,TIGER/Line® dataset from the US Census Bureau
"1100 EMMET ST N, Charlottesville, VA",38.051498,-78.5002,1,range_interpolation,1100,Emmet St N,,,Charlottesville,VA,Albemarle County,22903,US,TIGER/Line® dataset from the US Census Bureau
"1400 VIRGINIA AVE, Charlottesville, VA",38.037955,-78.497624,1,range_interpolation,1400,Virginia Ave,,,Charlottesville,VA,Albemarle County,22903,US,TIGER/Line® dataset from the US Census Bureau
"100 EMMET ST N, Charlottesville, VA",38.039966,-78.506381,1,rooftop,100,Emmet St N,,,Charlottesville,VA,Albemarle County,22901,US,City of Charlottesville
"200 MAURY AVE, Charlottesville, VA",38.027131,-78.516331,1,range_interpolation,200,Maury Ave,,,Charlottesville,VA,Albemarle County,22903,US,TIGER/Line® dataset from the US Census Bureau
"1300 LONG ST, Charlottesville, VA",38.035319,-78.4627,1,rooftop,1300,Long St,,,Charlottesville,VA,Albemarle County,22901,US,City of Charlottesville
"600 RUGBY RD, Charlottesville, VA",38.041804,-78.499982,1,rooftop,600,Rugby Rd,,,Charlottesville,VA,Albemarle County,22903,US,City of Charlottesville
"1100 EMMET ST N, Charlottesville, VA",38.051498,-78.5002,1,range_interpolation,1100,Emmet St N,,,Charlottesville,VA,Albemarle County,22903,US,TIGER/Line® dataset from the US Census Bureau
"1000 SHERIDAN AVE, Charlottesville, VA",38.041622,-78.465175,1,range_interpolation,1000,Sheridan Ave,,,Charlottesville,VA,Albemarle County,22901,US,TIGER/Line® dataset from the US Census Bureau
"300 11TH ST NW, Charlottesville, VA",38.035696,-78.494993,1,range_interpolation,300,11th St NW,,,Charlottesville,VA,Albemarle County,22903,US,TIGER/Line® dataset from the US Census Bureau
"600 PRESTON AVE, Charlottesville, VA",38.034938,-78.486011,1,rooftop,600,Preston Ave,,,Charlottesville,VA,Albemarle County,22903,US,City of Charlottesville
"2300 PRICE AVE, Charlottesville, VA",38.026961,-78.516628,1,rooftop,2300,Price Ave,,,Charlottesville,VA,Albemarle County,22901,US,City of Charlottesville
"300 6 1/2 ST SW, Charlottesville, VA",38.029641,-78.490293,1,range_interpolation,300,6 1/2 St SW,,,Charlottesville,VA,Albemarle County,22903,US,TIGER/Line® dataset from the US Census Bureau
"2100 MICHIE DR, Charlottesville, VA",38.065057,-78.48225,1,rooftop,2100,Michie Dr,,,Charlottesville,VA,Albemarle County,22901,US,City of Charlottesville
"1500 UNIVERSITY AVE, Charlottesville, VA",38.034988,-78.500296,0.72,nearest_rooftop_match,1501,University Ave,,,Charlottesville,VA,Albemarle County,22903,US,Virginia Geographic Information Network (VGIN)
"100 W SOUTH ST, Charlottesville, VA",38.029288,-78.482396,1,rooftop,100,W South St,,,Charlottesville,VA,Albemarle County,22902,US,City of Charlottesville
"1500 VIRGINIA AVE, Charlottesville, VA",38.038053,-78.498689,1,rooftop,1500,Virginia Ave,,,Charlottesville,VA,Albemarle County,22901,US,City of Charlottesville
"100 LANKFORD AVE, Charlottesville, VA",38.021191,-78.487098,1,rooftop,100,Lankford Ave,,,Charlottesville,VA,Albemarle County,22902,US,City of Charlottesville
"400 RIDGE MCINTIRE RD, Charlottesville, VA",38.03264,-78.484434,1,range_interpolation,400,Ridge Mcintire Rd,,,Charlottesville,VA,Albemarle County,22903,US,TIGER/Line® dataset from the US Census Bureau
"500 PARK ST, Charlottesville, VA",38.03394,-78.475337,1,rooftop,500,Park St,,,Charlottesville,VA,Albemarle County,22902,US,City of Charlottesville
"1100 5TH ST SW, Charlottesville, VA",38.014495,-78.50005,1,range_interpolation,1100,5th St SW,,,Charlottesville,VA,Albemarle County,22902,US,TIGER/Line® dataset from the US Census Bureau
"500 STEWART ST, Charlottesville, VA",38.032053,-78.46528,1,range_interpolation,500,Stewart St,,,Charlottesville,VA,Albemarle County,22902,US,TIGER/Line® dataset from the US Census Bureau
"1200 EMMET ST N, Charlottesville, VA",38.052819,-78.498406,1,rooftop,1200,Emmet St N,,,Charlottesville,VA,Albemarle County,22903,US,City of Charlottesville
"600 E MARKET ST, Charlottesville, VA",38.030267,-78.477549,1,range_interpolation,600,Market St E,,,Charlottesville,VA,Albemarle County,22902,US,TIGER/Line® dataset from the US Census Bureau
"600 E MARKET ST, Charlottesville, VA",38.030267,-78.477549,1,range_interpolation,600,Market St E,,,Charlottesville,VA,Albemarle County,22902,US,TIGER/Line® dataset from the US Census Bureau
"NA 5TH ST SW @ DICE ST, Charlottesville, VA",38.028954,-78.488911,1,intersection,,5th St SW,,,Charlottesville,VA,Albemarle County,22903,US,TIGER/Line® dataset from the US Census Bureau
"800 6TH ST SE, Charlottesville, VA",38.024489,-78.480922,1,rooftop,800,6th St SE,,,Charlottesville,VA,Albemarle County,22902,US,City of Charlottesville
"200 E JEFFERSON ST, Charlottesville, VA",38.031911,-78.480066,0.8,range_interpolation,200,Jefferson St,,,Charlottesville,VA,Albemarle County,22902,US,TIGER/Line® dataset from the US Census Bureau
"1200 AGNESE ST, Charlottesville, VA",38.046235,-78.462147,1,range_interpolation,1200,Agnese St,,,Charlottesville,VA,Albemarle County,22901,US,TIGER/Line® dataset from the US Census Bureau
"700 FRANKLIN ST, Charlottesville, VA",38.020288,-78.464352,1,range_interpolation,700,Franklin St,,,Charlottesville,VA,Albemarle County,22902,US,TIGER/Line® dataset from the US Census Bureau
"200 RIDGE ST, Charlottesville, VA",38.029765,-78.485528,1,range_interpolation,200,State Rte 631,,,Charlottesville,VA,Albemarle County,22902,US,TIGER/Line® dataset from the US Census Bureau
"1400 MIDLAND ST, Charlottesville, VA",38.020478,-78.467982,1,rooftop,1400,Midland St,,,Charlottesville,VA,Albemarle County,22902,US,City of Charlottesville
"1100 HERNDON RD, Charlottesville, VA",38.045716,-78.488485,1,range_interpolation,1100,Herndon Rd,,,Charlottesville,VA,Albemarle County,22903,US,TIGER/Line® dataset from the US Census Bureau
"1000 CHERRY AVE, Charlottesville, VA",38.026722,-78.497519,1,rooftop,1000,Cherry Ave,,,Charlottesville,VA,Albemarle County,22903,US,City of Charlottesville
"1100 5TH ST SW, Charlottesville, VA",38.014495,-78.50005,1,range_interpolation,1100,5th St SW,,,Charlottesville,VA,Albemarle County,22902,US,TIGER/Line® dataset from the US Census Bureau
"900 EMMET ST N, Charlottesville, VA",38.048623,-78.503011,1,rooftop,900,Emmet St N,,,Charlottesville,VA,Albemarle County,22903,US,City of Charlottesville
"600 E MARKET ST, Charlottesville, VA",38.030267,-78.477549,1,range_interpolation,600,Market St E,,,Charlottesville,VA,Albemarle County,22902,US,TIGER/Line® dataset from the US Census Bureau
"1000 PAGE ST, Charlottesville, VA",38.035177,-78.493817,1,rooftop,1000,Page St,,,Charlottesville,VA,Albemarle County,22903,US,City of Charlottesville
"200 W MAIN ST, Charlottesville, VA",38.030748,-78.482695,1,rooftop,200,W Main St,,,Charlottesville,VA,Albemarle County,22901,US,City of Charlottesville
"1600 JEFFERSON PARK AVE, Charlottesville, VA",38.03177,-78.507397,1,rooftop,1600,Jefferson Park Ave,,,Charlottesville,VA,Albemarle County,22903,US,City of Charlottesville
"700 PROSPECT AVE, Charlottesville, VA",38.024646,-78.494399,1,rooftop,700,Prospect Ave,,,Charlottesville,VA,Albemarle County,22903,US,Virginia Geographic Information Network (VGIN)
"2100 MICHIE DR, Charlottesville, VA",38.065057,-78.48225,1,rooftop,2100,Michie Dr,,,Charlottesville,VA,Albemarle County,22901,US,City of Charlottesville
"1600 UNIVERSITY AVE, Charlottesville, VA",38.034497,-78.500062,0.9,range_interpolation,1600,University Ave,,,Charlottesville,VA,Albemarle County,22903,US,TIGER/Line® dataset from the US Census Bureau
"400 ALDERMAN RD, Charlottesville, VA",38.037687,-78.515449,0.72,nearest_rooftop_match,401,Alderman Rd,,,Charlottesville,VA,Albemarle County,22903,US,City of Charlottesville
"1100 5TH ST SW, Charlottesville, VA",38.014495,-78.50005,1,range_interpolation,1100,5th St SW,,,Charlottesville,VA,Albemarle County,22902,US,TIGER/Line® dataset from the US Census Bureau
"1100 LEONARD ST, Charlottesville, VA",38.023297,-78.47208,1,rooftop,1100,Leonard St,,,Charlottesville,VA,Albemarle County,22903,US,City of Charlottesville
"NA COURT SQ, Charlottesville, VA",38.026588,-78.48045,1,place,,,,,Charlottesville,VA,Charlottesville city,22902,US,TIGER/Line® dataset from the US Census Bureau
"1500 BROAD AVE, Charlottesville, VA",38.024317,-78.504687,1,rooftop,1500,Broad Ave,,,Charlottesville,VA,Albemarle County,22903,US,City of Charlottesville
"100 W MAIN ST, Charlottesville, VA",38.030482,-78.481848,1,rooftop,100,W Main St,,,Charlottesville,VA,Albemarle County,22902,US,Virginia Geographic Information Network (VGIN)
"400 GARRETT ST, Charlottesville, VA",38.027754,-78.481638,1,rooftop,400,Garrett St,,,Charlottesville,VA,Albemarle County,22902,US,Virginia Geographic Information Network (VGIN)
"600 WATSON AVE, Charlottesville, VA",38.040658,-78.471318,1,rooftop,600,Watson Ave,,,Charlottesville,VA,Albemarle County,22901,US,City of Charlottesville
"2200 ANGUS RD, Charlottesville, VA",38.060894,-78.49691,1,rooftop,2200,Angus Rd,,,Charlottesville,VA,Albemarle County,22901,US,City of Charlottesville
"800 HARDY DR, Charlottesville, VA",38.033559,-78.490241,1,range_interpolation,800,Hardy Dr,,,Charlottesville,VA,Albemarle County,22903,US,TIGER/Line® dataset from the US Census Bureau
"100 W SOUTH ST, Charlottesville, VA",38.029288,-78.482396,1,rooftop,100,W South St,,,Charlottesville,VA,Albemarle County,22902,US,City of Charlottesville
"1500 CHERRY AVE, Charlottesville, VA",38.024109,-78.503133,1,range_interpolation,1500,Cherry Ave,,,Charlottesville,VA,Albemarle County,22903,US,TIGER/Line® dataset from the US Census Bureau
"800 CONCORD AVE, Charlottesville, VA",38.038754,-78.485701,1,rooftop,800,Concord Ave,,,Charlottesville,VA,Albemarle County,22903,US,City of Charlottesville
"1000 5TH ST SW, Charlottesville, VA",38.020689,-78.494558,1,range_interpolation,1000,State Rte 631,,,Charlottesville,VA,Albemarle County,22902,US,TIGER/Line® dataset from the US Census Bureau
"400 5TH ST SW, Charlottesville, VA",38.028282,-78.489446,1,range_interpolation,400,5th St SW,,,Charlottesville,VA,Albemarle County,22903,US,TIGER/Line® dataset from the US Census Bureau
"800 HINTON AVE, Charlottesville, VA",38.024915,-78.476461,1,rooftop,800,Hinton Ave,,,Charlottesville,VA,Albemarle County,22902,US,City of Charlottesville
"600 ALBEMARLE ST, Charlottesville, VA",38.0358,-78.48633,1,range_interpolation,600,Albemarle St,,,Charlottesville,VA,Albemarle County,22903,US,TIGER/Line® dataset from the US Census Bureau
"300 AZALEA DR, Charlottesville, VA",38.012121,-78.512626,1,rooftop,300,Azalea Dr,,,Charlottesville,VA,Albemarle County,22903,US,City of Charlottesville
"2100 MICHIE DR, Charlottesville, VA",38.065057,-78.48225,1,rooftop,2100,Michie Dr,,,Charlottesville,VA,Albemarle County,22901,US,City of Charlottesville
"500 W MAIN ST, Charlottesville, VA",38.030788,-78.487892,1,rooftop,500,W Main St,,,Charlottesville,VA,Albemarle County,22903,US,Virginia Geographic Information Network (VGIN)
"NA KENT RD / ALDERMAN RD, Charlottesville, VA",38.026588,-78.48045,1,place,,,,,Charlottesville,VA,Charlottesville city,22902,US,TIGER/Line® dataset from the US Census Bureau
"1700 HYDRAULIC RD, Charlottesville, VA",38.058532,-78.488855,1,range_interpolation,1700,Hydraulic Rd,,,Charlottesville,VA,Albemarle County,22901,US,TIGER/Line® dataset from the US Census Bureau
"600 BOLLING AVE, Charlottesville, VA",38.024116,-78.481209,1,rooftop,600,Bolling Ave,,,Charlottesville,VA,Albemarle County,22902,US,City of Charlottesville
"400 RIVERSIDE AVE, Charlottesville, VA",38.026902,-78.454841,1,rooftop,400,Riverside Ave,,,Charlottesville,VA,Albemarle County,22902,US,City of Charlottesville
"1200 PARK ST, Charlottesville, VA",38.046044,-78.469881,1,rooftop,1200,Park St,,,Charlottesville,VA,Albemarle County,22901,US,City of Charlottesville
"300 13TH ST NW, Charlottesville, VA",38.035783,-78.497323,1,range_interpolation,300,13th St NW,,,Charlottesville,VA,Albemarle County,22903,US,TIGER/Line® dataset from the US Census Bureau
"1000 WERTLAND ST, Charlottesville, VA",38.033911,-78.494229,1,rooftop,1000,Wertland St,,,Charlottesville,VA,Albemarle County,22903,US,City of Charlottesville
"1100 5TH ST SW, Charlottesville, VA",38.014495,-78.50005,1,range_interpolation,1100,5th St SW,,,Charlottesville,VA,Albemarle County,22902,US,TIGER/Line® dataset from the US Census Bureau
"2100 BARRACKS RD, Charlottesville, VA",38.052715,-78.499043,1,range_interpolation,2100,Barracks Rd,,,Charlottesville,VA,Albemarle County,22903,US,TIGER/Line® dataset from the US Census Bureau
"100 W MARKET ST, Charlottesville, VA",38.031682,-78.481145,0.8,range_interpolation,100,Market St,,,Charlottesville,VA,Albemarle County,22902,US,TIGER/Line® dataset from the US Census Bureau
"500 ROUGEMONT AVE, Charlottesville, VA",38.01793,-78.488354,1,rooftop,500,Rougemont Ave,,,Charlottesville,VA,Albemarle County,22902,US,City of Charlottesville
"500 ROCKLAND AVE, Charlottesville, VA",38.019593,-78.486204,1,range_interpolation,500,Rockland Ave,,,Charlottesville,VA,Albemarle County,22902,US,TIGER/Line® dataset from the US Census Bureau
"600 E MARKET ST, Charlottesville, VA",38.030267,-78.477549,1,range_interpolation,600,Market St E,,,Charlottesville,VA,Albemarle County,22902,US,TIGER/Line® dataset from the US Census Bureau
"600 W MAIN ST, Charlottesville, VA",38.030966,-78.488496,1,rooftop,600,W Main St,,,Charlottesville,VA,Albemarle County,22903,US,Virginia Geographic Information Network (VGIN)
"1100 W MAIN ST, Charlottesville, VA",38.033001,-78.495935,1,range_interpolation,1100,W Main St,,,Charlottesville,VA,Albemarle County,22903,US,TIGER/Line® dataset from the US Census Bureau
"800 W MAIN ST, Charlottesville, VA",38.031848,-78.490814,1,range_interpolation,800,W Main St,,,Charlottesville,VA,Albemarle County,22903,US,TIGER/Line® dataset from the US Census Bureau
"200 W MAIN ST, Charlottesville, VA",38.030748,-78.482695,1,rooftop,200,W Main St,,,Charlottesville,VA,Albemarle County,22901,US,City of Charlottesville
"400 E MARKET ST, Charlottesville, VA",38.030675,-78.478873,1,range_interpolation,400,Market St E,,,Charlottesville,VA,Albemarle County,22902,US,TIGER/Line® dataset from the US Census Bureau
"900 EMMET ST N, Charlottesville, VA",38.048623,-78.503011,1,rooftop,900,Emmet St N,,,Charlottesville,VA,Albemarle County,22903,US,City of Charlottesville
"100 BAYLOR LN, Charlottesville, VA",38.018886,-78.492384,1,rooftop,100,Baylor Ln,,,Charlottesville,VA,Albemarle County,22902,US,City of Charlottesville
"1400 MONTICELLO RD, Charlottesville, VA",38.019358,-78.472299,1,rooftop,1400,Monticello Rd,,,Charlottesville,VA,Albemarle County,22902,US,City of Charlottesville
"1400 MELBOURNE RD, Charlottesville, VA",38.052489,-78.475702,1,rooftop,1400,Melbourne Rd,,,Charlottesville,VA,Albemarle County,22902,US,City of Charlottesville
"1000 ALTAVISTA AVE, Charlottesville, VA",38.018098,-78.477234,1,rooftop,1000,Altavista Ave,,,Charlottesville,VA,Albemarle County,22902,US,City of Charlottesville
"200 W MAIN ST, Charlottesville, VA",38.030748,-78.482695,1,rooftop,200,W Main St,,,Charlottesville,VA,Albemarle County,22901,US,City of Charlottesville
"2100 MICHIE DR, Charlottesville, VA",38.065057,-78.48225,1,rooftop,2100,Michie Dr,,,Charlottesville,VA,Albemarle County,22901,US,City of Charlottesville
"2500 PLATEAU RD, Charlottesville, VA",38.02495,-78.520612,1,rooftop,2500,Plateau Rd,,,Charlottesville,VA,Albemarle County,22903,US,City of Charlottesville
"2100 ARLINGTON BLVD, Charlottesville, VA",38.049485,-78.506608,1,range_interpolation,2100,Arlington Blvd,,,Charlottesville,VA,Albemarle County,22903,US,TIGER/Line® dataset from the US Census Bureau
"1500 UNIVERSITY AVE, Charlottesville, VA",38.034988,-78.500296,0.72,nearest_rooftop_match,1501,University Ave,,,Charlottesville,VA,Albemarle County,22903,US,Virginia Geographic Information Network (VGIN)
"400 GARRETT ST, Charlottesville, VA",38.027754,-78.481638,1,rooftop,400,Garrett St,,,Charlottesville,VA,Albemarle County,22902,US,Virginia Geographic Information Network (VGIN)
"700 MONTROSE AVE, Charlottesville, VA",38.02188,-78.480831,1,range_interpolation,700,Montrose Ave,,,Charlottesville,VA,Albemarle County,22902,US,TIGER/Line® dataset from the US Census Bureau
"1100 RIVER RD, Charlottesville, VA",38.038632,-78.456902,1,range_interpolation,1100,River Rd,,,Charlottesville,VA,Albemarle County,22902,US,TIGER/Line® dataset from the US Census Bureau
"1000 MONTICELLO RD, Charlottesville, VA",38.023547,-78.473137,1,rooftop,1000,Monticello Rd,,,Charlottesville,VA,Albemarle County,22902,US,City of Charlottesville
"100 9TH ST SW, Charlottesville, VA",38.032749,-78.494765,1,range_interpolation,100,9th St SW,,,Charlottesville,VA,Albemarle County,22903,US,TIGER/Line® dataset from the US Census Bureau
"100 14TH ST NW, Charlottesville, VA",38.034122,-78.499326,1,rooftop,100,14th St NW,,,Charlottesville,VA,Albemarle County,22903,US,Virginia Geographic Information Network (VGIN)
"600 E MAIN ST, Charlottesville, VA",38.030966,-78.488496,0.8,rooftop,600,W Main St,,,Charlottesville,VA,Albemarle County,22903,US,Virginia Geographic Information Network (VGIN)
"1300 FRANCIS FIFE WAY, Charlottesville, VA",38.026861,-78.501611,0.64,nearest_rooftop_match,1341,Francis Fife Way,,,Charlottesville,VA,Albemarle County,22903,US,Virginia Geographic Information Network (VGIN)
"100 SEMINOLE CT, Charlottesville, VA",38.065629,-78.488112,1,range_interpolation,100,Seminole Ct,,,Charlottesville,VA,Albemarle County,22901,US,TIGER/Line® dataset from the US Census Bureau
"NA E JEFFERSON ST / PARK ST, Charlottesville, VA",38.026588,-78.48045,1,place,,,,,Charlottesville,VA,Charlottesville city,22902,US,TIGER/Line® dataset from the US Census Bureau
"900 1ST ST S, Charlottesville, VA",38.022908,-78.485672,1,rooftop,900,1st St S,,,Charlottesville,VA,Albemarle County,22902,US,Virginia Geographic Information Network (VGIN)
"800 NALLE ST, Charlottesville, VA",38.029579,-78.492588,1,range_interpolation,800,Nalle St,,,Charlottesville,VA,Albemarle County,22903,US,TIGER/Line® dataset from the US Census Bureau
"1400 FOREST RIDGE RD, Charlottesville, VA",38.025502,-78.49774,1,range_interpolation,1400,Forest Ridge Rd,,,Charlottesville,VA,Albemarle County,22903,US,TIGER/Line® dataset from the US Census Bureau
"800 E MARKET ST, Charlottesville, VA",38.02958,-78.476031,1,rooftop,800,E Market St,,,Charlottesville,VA,Albemarle County,22902,US,Virginia Geographic Information Network (VGIN)
"500 PARK ST, Charlottesville, VA",38.03394,-78.475337,1,rooftop,500,Park St,,,Charlottesville,VA,Albemarle County,22902,US,City of Charlottesville
"1900 SWANSON DR, Charlottesville, VA",38.06198,-78.494142,1,range_interpolation,1900,Swanson Dr,,,Charlottesville,VA,Albemarle County,22901,US,TIGER/Line® dataset from the US Census Bureau
"300 250 BYPASS, Charlottesville, VA",38.026588,-78.48045,0.33,place,,,,,Charlottesville,VA,Charlottesville city,22902,US,TIGER/Line® dataset from the US Census Bureau
"700 CHERRY AVE, Charlottesville, VA",38.027807,-78.491575,1,range_interpolation,700,Cherry Ave,,,Charlottesville,VA,Albemarle County,22903,US,TIGER/Line® dataset from the US Census Bureau
"600 E MARKET ST, Charlottesville, VA",38.030267,-78.477549,1,range_interpolation,600,Market St E,,,Charlottesville,VA,Albemarle County,22902,US,TIGER/Line® dataset from the US Census Bureau
"1100 EMMET ST N, Charlottesville, VA",38.051498,-78.5002,1,range_interpolation,1100,Emmet St N,,,Charlottesville,VA,Albemarle County,22903,US,TIGER/Line® dataset from the US Census Bureau
"200 E WATER ST, Charlottesville, VA",38.02935,-78.480554,1,rooftop,200,E Water St,,,Charlottesville,VA,Albemarle County,22901,US,City of Charlottesville
"1100 ALTAVISTA AVE, Charlottesville, VA",38.017307,-78.47547,1,rooftop,1100,Altavista Ave,,,Charlottesville,VA,Albemarle County,22902,US,City of Charlottesville
"100 LANKFORD AVE, Charlottesville, VA",38.021191,-78.487098,1,rooftop,100,Lankford Ave,,,Charlottesville,VA,Albemarle County,22902,US,City of Charlottesville
"1400 MELBOURNE RD, Charlottesville, VA",38.052489,-78.475702,1,rooftop,1400,Melbourne Rd,,,Charlottesville,VA,Albemarle County,22902,US,City of Charlottesville
"700 ORANGEDALE AVE, Charlottesville, VA",38.024675,-78.495376,1,rooftop,700,Orangedale Ave,,,Charlottesville,VA,Albemarle County,22903,US,City of Charlottesville
"1400 MELBOURNE RD, Charlottesville, VA",38.052489,-78.475702,1,rooftop,1400,Melbourne Rd,,,Charlottesville,VA,Albemarle County,22902,US,City of Charlottesville
"2100 IVY RD, Charlottesville, VA",38.042471,-78.511905,1,rooftop,2100,Ivy Rd,,,Charlottesville,VA,Albemarle County,22902,US,City of Charlottesville
"900 DRUID AVE, Charlottesville, VA",38.01801,-78.47932,1,rooftop,900,Druid Ave,,,Charlottesville,VA,Albemarle County,22902,US,City of Charlottesville
"NA PAGE ST / 9TH ST NW, Charlottesville, VA",38.026588,-78.48045,1,place,,,,,Charlottesville,VA,Charlottesville city,22902,US,TIGER/Line® dataset from the US Census Bureau
"800 CABELL AVE, Charlottesville, VA",38.042215,-78.496417,1,range_interpolation,800,Cabell Ave,,,Charlottesville,VA,Albemarle County,22903,US,TIGER/Line® dataset from the US Census Bureau
"600 E MARKET ST, Charlottesville, VA",38.030267,-78.477549,1,range_interpolation,600,Market St E,,,Charlottesville,VA,Albemarle County,22902,US,TIGER/Line® dataset from the US Census Bureau
"700 MAPLE ST, Charlottesville, VA",38.032453,-78.475436,1,range_interpolation,700,Maple St,,,Charlottesville,VA,Albemarle County,22902,US,TIGER/Line® dataset from the US Census Bureau
"2100 BARRACKS RD, Charlottesville, VA",38.052715,-78.499043,1,range_interpolation,2100,Barracks Rd,,,Charlottesville,VA,Albemarle County,22903,US,TIGER/Line® dataset from the US Census Bureau
"1100 LEONARD ST, Charlottesville, VA",38.023297,-78.47208,1,rooftop,1100,Leonard St,,,Charlottesville,VA,Albemarle County,22903,US,City of Charlottesville
"1000 GRADY AVE, Charlottesville, VA",38.03877,-78.49157,1,range_interpolation,1000,Grady Ave,,,Charlottesville,VA,Albemarle County,22903,US,TIGER/Line® dataset from the US Census Bureau
"400 GARRETT ST, Charlottesville, VA",38.027754,-78.481638,1,rooftop,400,Garrett St,,,Charlottesville,VA,Albemarle County,22902,US,Virginia Geographic Information Network (VGIN)
"2100 MICHIE DR, Charlottesville, VA",38.065057,-78.48225,1,rooftop,2100,Michie Dr,,,Charlottesville,VA,Albemarle County,22901,US,City of Charlottesville
"100 7TH ST NE, Charlottesville, VA",38.029267,-78.476974,1,range_interpolation,100,7th St NE,,,Charlottesville,VA,Albemarle County,22902,US,TIGER/Line® dataset from the US Census Bureau
"1400 MELBOURNE RD, Charlottesville, VA",38.052489,-78.475702,1,rooftop,1400,Melbourne Rd,,,Charlottesville,VA,Albemarle County,22902,US,City of Charlottesville
"NA MILLMONT ST @ BARRACKS RD, Charlottesville, VA",38.026588,-78.48045,1,place,,,,,Charlottesville,VA,Charlottesville city,22902,US,TIGER/Line® dataset from the US Census Bureau
"1600 MULBERRY AVE, Charlottesville, VA",38.023971,-78.506828,1,rooftop,1600,Mulberry Ave,,,Charlottesville,VA,Albemarle County,22903,US,City of Charlottesville
"2000 MICHIE DR, Charlottesville, VA",38.05877,-78.487974,1,rooftop,2000,Michie Dr,,,Charlottesville,VA,Albemarle County,22901,US,City of Charlottesville
"100 MONTE VISTA AVE, Charlottesville, VA",38.017288,-78.512673,1,rooftop,100,Monte Vista Ave,,,Charlottesville,VA,Albemarle County,22903,US,City of Charlottesville
"4000 CITY WALK WAY, Charlottesville, VA",38.026588,-78.48045,0.33,place,,,,,Charlottesville,VA,Charlottesville city,22902,US,TIGER/Line® dataset from the US Census Bureau
"900 COLEMAN ST, Charlottesville, VA",38.036555,-78.460315,1,rooftop,900,Coleman St,,,Charlottesville,VA,Albemarle County,22901,US,City of Charlottesville
"300 W MAIN ST, Charlottesville, VA",38.030167,-78.485534,1,rooftop,300,W Main St,,,Charlottesville,VA,Albemarle County,22902,US,City of Charlottesville
