Addresses,Latitude,Longitude,"Accuracy Score","Accuracy Type",Number,Street,"Unit Type","Unit Number",City,State,County,Zip,Country,Source
"600 E MAIN ST, Charlottesville, VA",38.030966,-78.488496,0.8,rooftop,600,"W Main St",,,Charlottesville,VA,"Albemarle County",22903,US,"Virginia Geographic Information Network (VGIN)"
"1800 MONTICELLO RD, Charlottesville, VA",38.015537,-78.472869,1,rooftop,1800,"Monticello Rd",,,Charlottesville,VA,"Albemarle County",22903,US,"City of Charlottesville"
"1600 JEFFERSON PARK AVE, Charlottesville, VA",38.03177,-78.507397,1,rooftop,1600,"Jefferson Park Ave",,,Charlottesville,VA,"Albemarle County",22903,US,"City of Charlottesville"
"200 3RD ST NE, Charlottesville, VA",38.030911,-78.479647,1,range_interpolation,200,"3rd St NE",,,Charlottesville,VA,"Albemarle County",22902,US,"TIGER/Line® dataset from the US Census Bureau"
"2200 BARRACKS RD, Charlottesville, VA",38.055725,-78.503683,0.72,nearest_rooftop_match,2150,"Barracks Rd",,,Charlottesville,VA,"Albemarle County",22903,US,"Virginia Geographic Information Network (VGIN)"
"1900 LEWIS MOUNTAIN RD, Charlottesville, VA",38.037634,-78.507499,1,range_interpolation,1900,"Lewis Mountain Rd",,,Charlottesville,VA,"Albemarle County",22903,US,"TIGER/Line® dataset from the US Census Bureau"
"800 HARDY DR, Charlottesville, VA",38.033559,-78.490241,1,range_interpolation,800,"Hardy Dr",,,Charlottesville,VA,"Albemarle County",22903,US,"TIGER/Line® dataset from the US Census Bureau"
"500 RIDGE ST, Charlottesville, VA",38.027111,-78.486605,1,rooftop,500,"Ridge St",,,Charlottesville,VA,"Albemarle County",22901,US,"City of Charlottesville"
"500 W MAIN ST, Charlottesville, VA",38.030788,-78.487892,1,rooftop,500,"W Main St",,,Charlottesville,VA,"Albemarle County",22903,US,"Virginia Geographic Information Network (VGIN)"
"700 E HIGH ST, Charlottesville, VA",38.031411,-78.475746,1,rooftop,700,"E High St",,,Charlottesville,VA,"Albemarle County",22902,US,"City of Charlottesville"
"500 17TH ST NW, Charlottesville, VA",38.04023,-78.499922,1,range_interpolation,500,"17th St NW",,,Charlottesville,VA,"Albemarle County",22903,US,"TIGER/Line® dataset from the US Census Bureau"
"700 PROSPECT AVE, Charlottesville, VA",38.024646,-78.494399,1,rooftop,700,"Prospect Ave",,,Charlottesville,VA,"Albemarle County",22903,US,"Virginia Geographic Information Network (VGIN)"
"1100 PRESTON AVE, Charlottesville, VA",38.042033,-78.491926,1,rooftop,1100,"Preston Ave",,,Charlottesville,VA,"Albemarle County",22903,US,"City of Charlottesville"
"NA LEE PARK, Charlottesville, VA",38.026588,-78.48045,1,place,,,,,Charlottesville,VA,"Charlottesville city",22902,US,"TIGER/Line® dataset from the US Census Bureau"
"100 E MARKET ST, Charlottesville, VA",38.031382,-78.481145,1,range_interpolation,100,"Market St E",,,Charlottesville,VA,"Albemarle County",22902,US,"TIGER/Line® dataset from the US Census Bureau"
"700 PROSPECT AVE, Charlottesville, VA",38.024646,-78.494399,1,rooftop,700,"Prospect Ave",,,Charlottesville,VA,"Albemarle County",22903,US,"Virginia Geographic Information Network (VGIN)"
"500 PARK ST, Charlottesville, VA",38.03394,-78.475337,1,rooftop,500,"Park St",,,Charlottesville,VA,"Albemarle County",22902,US,"City of Charlottesville"
"700 DICE ST, Charlottesville, VA",38.029565,-78.491013,0.58,nearest_rooftop_match,628,"Dice St",,,Charlottesville,VA,"Albemarle County",22903,US,"City of Charlottesville"
"1400 BURGESS LN, Charlottesville, VA",38.023265,-78.465232,1,range_interpolation,1400,"Burgess Ln",,,Charlottesville,VA,"Albemarle County",22902,US,"TIGER/Line® dataset from the US Census Bureau"
"700 PROSPECT AVE, Charlottesville, VA",38.024646,-78.494399,1,rooftop,700,"Prospect Ave",,,Charlottesville,VA,"Albemarle County",22903,US,"Virginia Geographic Information Network (VGIN)"
"200 E JEFFERSON ST, Charlottesville, VA",38.031911,-78.480066,0.8,range_interpolation,200,"Jefferson St",,,Charlottesville,VA,"Albemarle County",22902,US,"TIGER/Line® dataset from the US Census Bureau"
"700 MADISON AVE, Charlottesville, VA",38.041161,-78.495152,1,range_interpolation,700,"Madison Ave",,,Charlottesville,VA,"Albemarle County",22903,US,"TIGER/Line® dataset from the US Census Bureau"
"1600 MERIDIAN ST, Charlottesville, VA",38.015145,-78.481442,1,range_interpolation,1600,"Meridian St",,,Charlottesville,VA,"Albemarle County",22902,US,"TIGER/Line® dataset from the US Census Bureau"
"100 SHAMROCK RD, Charlottesville, VA",38.026588,-78.48045,0.33,place,,,,,Charlottesville,VA,"Charlottesville city",22902,US,"TIGER/Line® dataset from the US Census Bureau"
"300 MONTICELLO AVE, Charlottesville, VA",38.026882,-78.47693,0.6,range_interpolation,300,"Monticello Rd",,,Charlottesville,VA,"Albemarle County",22902,US,"TIGER/Line® dataset from the US Census Bureau"
"100 ST NW, Charlottesville, VA",38.026588,-78.48045,0.33,place,,,,,Charlottesville,VA,"Charlottesville city",22902,US,"TIGER/Line® dataset from the US Census Bureau"
"100 E MARKET ST, Charlottesville, VA",38.031382,-78.481145,1,range_interpolation,100,"Market St E",,,Charlottesville,VA,"Albemarle County",22902,US,"TIGER/Line® dataset from the US Census Bureau"
"800 HARDY DR, Charlottesville, VA",38.033559,-78.490241,1,range_interpolation,800,"Hardy Dr",,,Charlottesville,VA,"Albemarle County",22903,US,"TIGER/Line® dataset from the US Census Bureau"
"300 RIVERSIDE AVE, Charlottesville, VA",38.02387,-78.455313,1,rooftop,300,"Riverside Ave",,,Charlottesville,VA,"Albemarle County",22902,US,"City of Charlottesville"
"200 W WATER ST, Charlottesville, VA",38.030184,-78.482828,1,rooftop,200,"W Water St",,,Charlottesville,VA,"Albemarle County",22902,US,"City of Charlottesville"
"300 RIVERSIDE AVE, Charlottesville, VA",38.02387,-78.455313,1,rooftop,300,"Riverside Ave",,,Charlottesville,VA,"Albemarle County",22902,US,"City of Charlottesville"
"1100 DRUID AVE, Charlottesville, VA",38.016926,-78.477137,1,range_interpolation,1100,"Druid Ave",,,Charlottesville,VA,"Albemarle County",22902,US,"TIGER/Line® dataset from the US Census Bureau"
"500 PARK ST, Charlottesville, VA",38.03394,-78.475337,1,rooftop,500,"Park St",,,Charlottesville,VA,"Albemarle County",22902,US,"City of Charlottesville"
"1100 EMMET ST N, Charlottesville, VA",38.051498,-78.5002,1,range_interpolation,1100,"Emmet St N",,,Charlottesville,VA,"Albemarle County",22903,US,"TIGER/Line® dataset from the US Census Bureau"
"200 W WATER ST, Charlottesville, VA",38.030184,-78.482828,1,rooftop,200,"W Water St",,,Charlottesville,VA,"Albemarle County",22902,US,"City of Charlottesville"
"200 W WATER ST, Charlottesville, VA",38.030184,-78.482828,1,rooftop,200,"W Water St",,,Charlottesville,VA,"Albemarle County",22902,US,"City of Charlottesville"
"200 W WATER ST, Charlottesville, VA",38.030184,-78.482828,1,rooftop,200,"W Water St",,,Charlottesville,VA,"Albemarle County",22902,US,"City of Charlottesville"
"1600 MERIDIAN ST, Charlottesville, VA",38.015145,-78.481442,1,range_interpolation,1600,"Meridian St",,,Charlottesville,VA,"Albemarle County",22902,US,"TIGER/Line® dataset from the US Census Bureau"
"300 SPRUCE ST, Charlottesville, VA",38.025191,-78.471217,1,range_interpolation,300,"Spruce St",,,Charlottesville,VA,"Albemarle County",22902,US,"TIGER/Line® dataset from the US Census Bureau"
"1500 UNIVERSITY AVE, Charlottesville, VA",38.034988,-78.500296,0.72,nearest_rooftop_match,1501,"University Ave",,,Charlottesville,VA,"Albemarle County",22903,US,"Virginia Geographic Information Network (VGIN)"
"900 EMMET ST N, Charlottesville, VA",38.048623,-78.503011,1,rooftop,900,"Emmet St N",,,Charlottesville,VA,"Albemarle County",22903,US,"City of Charlottesville"
"100 HARRIS, Charlottesville, VA",38.014969,-78.510651,0.6,rooftop,100,"Harris Rd",,,Charlottesville,VA,"Albemarle County",22903,US,"City of Charlottesville"
"1300 LONG ST, Charlottesville, VA",38.035319,-78.4627,1,rooftop,1300,"Long St",,,Charlottesville,VA,"Albemarle County",22901,US,"City of Charlottesville"
"1000 EMMET ST, Charlottesville, VA",38.050253,-78.50248,0.9,rooftop,1000,"Emmet St N",,,Charlottesville,VA,"Albemarle County",22903,US,"Virginia Geographic Information Network (VGIN)"
"2400 ARLINGTON BLVD, Charlottesville, VA",38.049739,-78.507346,1,rooftop,2400,"Arlington Blvd",,,Charlottesville,VA,"Albemarle County",22903,US,"Virginia Geographic Information Network (VGIN)"
"100 OLD FIFTH CIR, Charlottesville, VA",38.030195,-78.477633,0.4,rooftop,100,"5th St NE",,,Charlottesville,VA,"Albemarle County",22902,US,"City of Charlottesville"
"600 E MARKET ST, Charlottesville, VA",38.030267,-78.477549,1,range_interpolation,600,"Market St E",,,Charlottesville,VA,"Albemarle County",22902,US,"TIGER/Line® dataset from the US Census Bureau"
"100 OLD FIFTH CIR, Charlottesville, VA",38.030195,-78.477633,0.4,rooftop,100,"5th St NE",,,Charlottesville,VA,"Albemarle County",22902,US,"City of Charlottesville"
"400 10TH ST NW, Charlottesville, VA",38.037458,-78.49149,1,rooftop,400,"10th St NW",,,Charlottesville,VA,"Albemarle County",22903,US,"City of Charlottesville"
"200 14TH ST NW, Charlottesville, VA",38.034794,-78.498909,1,rooftop,200,"14th St NW",,,Charlottesville,VA,"Albemarle County",22903,US,"City of Charlottesville"
"300 15TH ST NW, Charlottesville, VA",38.036158,-78.499392,1,range_interpolation,300,"15th St NW",,,Charlottesville,VA,"Albemarle County",22903,US,"TIGER/Line® dataset from the US Census Bureau"
"100 ALMERE AVE, Charlottesville, VA",38.026588,-78.48045,0.33,place,,,,,Charlottesville,VA,"Charlottesville city",22902,US,"TIGER/Line® dataset from the US Census Bureau"
"400 14TH ST NW, Charlottesville, VA",38.037655,-78.497624,1,range_interpolation,400,"14th St NW",,,Charlottesville,VA,"Albemarle County",22903,US,"TIGER/Line® dataset from the US Census Bureau"
"100 OLINDA DR, Charlottesville, VA",38.023796,-78.49979,1,rooftop,100,"Olinda Dr",,,Charlottesville,VA,"Albemarle County",22901,US,"City of Charlottesville"
"100 BRANDYWINE CT, Charlottesville, VA",38.057707,-78.487433,1,rooftop,100,"Brandywine Ct",,,Charlottesville,VA,"Albemarle County",22901,US,"City of Charlottesville"
"500 W MAIN ST, Charlottesville, VA",38.030788,-78.487892,1,rooftop,500,"W Main St",,,Charlottesville,VA,"Albemarle County",22903,US,"Virginia Geographic Information Network (VGIN)"
"500 ROCKLAND AVE, Charlottesville, VA",38.019593,-78.486204,1,range_interpolation,500,"Rockland Ave",,,Charlottesville,VA,"Albemarle County",22902,US,"TIGER/Line® dataset from the US Census Bureau"
"1900 THOMSON RD, Charlottesville, VA",38.036689,-78.50784,1,range_interpolation,1900,"Thomson Rd",,,Charlottesville,VA,"Albemarle County",22903,US,"TIGER/Line® dataset from the US Census Bureau"
"1100 EMMET ST N, Charlottesville, VA",38.051498,-78.5002,1,range_interpolation,1100,"Emmet St N",,,Charlottesville,VA,"Albemarle County",22903,US,"TIGER/Line® dataset from the US Census Bureau"
"200 E JEFFERSON ST, Charlottesville, VA",38.031911,-78.480066,0.8,range_interpolation,200,"Jefferson St",,,Charlottesville,VA,"Albemarle County",22902,US,"TIGER/Line® dataset from the US Census Bureau"
"1100 EMMET ST N, Charlottesville, VA",38.051498,-78.5002,1,range_interpolation,1100,"Emmet St N",,,Charlottesville,VA,"Albemarle County",22903,US,"TIGER/Line® dataset from the US Census Bureau"
"700 ROCKLAND AVE, Charlottesville, VA",38.017903,-78.48365,1,rooftop,700,"Rockland Ave",,,Charlottesville,VA,"Albemarle County",22902,US,"City of Charlottesville"
"700 PROSPECT AVE, Charlottesville, VA",38.024646,-78.494399,1,rooftop,700,"Prospect Ave",,,Charlottesville,VA,"Albemarle County",22903,US,"Virginia Geographic Information Network (VGIN)"
"1100 5TH ST SW, Charlottesville, VA",38.014495,-78.50005,1,range_interpolation,1100,"5th St SW",,,Charlottesville,VA,"Albemarle County",22902,US,"TIGER/Line® dataset from the US Census Bureau"
"800 MCINTIRE RD, Charlottesville, VA",38.040717,-78.477038,1,range_interpolation,800,"McIntire Rd",,,Charlottesville,VA,"Albemarle County",22902,US,"TIGER/Line® dataset from the US Census Bureau"
"900 CALHOUN ST, Charlottesville, VA",38.041144,-78.464552,1,range_interpolation,900,"Calhoun St",,,Charlottesville,VA,"Albemarle County",22901,US,"TIGER/Line® dataset from the US Census Bureau"
"1000 CHERRY AVE, Charlottesville, VA",38.026722,-78.497519,1,rooftop,1000,"Cherry Ave",,,Charlottesville,VA,"Albemarle County",22903,US,"City of Charlottesville"
"600 10 1/2 ST NW, Charlottesville, VA",38.039708,-78.492036,1,range_interpolation,600,"10 1/2 St NW",,,Charlottesville,VA,"Albemarle County",22903,US,"TIGER/Line® dataset from the US Census Bureau"
"500 17TH ST NW, Charlottesville, VA",38.04023,-78.499922,1,range_interpolation,500,"17th St NW",,,Charlottesville,VA,"Albemarle County",22903,US,"TIGER/Line® dataset from the US Census Bureau"
"1600 GRADY AVE, Charlottesville, VA",38.040906,-78.498725,1,range_interpolation,1600,"Grady Ave",,,Charlottesville,VA,"Albemarle County",22903,US,"TIGER/Line® dataset from the US Census Bureau"
"700 PROSPECT AVE, Charlottesville, VA",38.024646,-78.494399,1,rooftop,700,"Prospect Ave",,,Charlottesville,VA,"Albemarle County",22903,US,"Virginia Geographic Information Network (VGIN)"
"200 10TH ST NE, Charlottesville, VA",38.0287,-78.473494,1,range_interpolation,200,"10th St NE",,,Charlottesville,VA,"Albemarle County",22902,US,"TIGER/Line® dataset from the US Census Bureau"
"200 W MARKET ST, Charlottesville, VA",38.031667,-78.482066,1,rooftop,200,"W Market St",,,Charlottesville,VA,"Albemarle County",22902,US,"City of Charlottesville"
"NA 5TH ST EXT, Charlottesville, VA",38.025115,-78.490264,1,street_center,,"State Rte 631",,,Charlottesville,VA,"Albemarle County",22902,US,"TIGER/Line® dataset from the US Census Bureau"
"1000 CHERRY AVE, Charlottesville, VA",38.026722,-78.497519,1,rooftop,1000,"Cherry Ave",,,Charlottesville,VA,"Albemarle County",22903,US,"City of Charlottesville"
"200 5TH ST SW, Charlottesville, VA",38.030475,-78.488002,1,range_interpolation,200,"5th St SW",,,Charlottesville,VA,"Albemarle County",22903,US,"TIGER/Line® dataset from the US Census Bureau"
"700 BROWN ST, Charlottesville, VA",38.032841,-78.489379,0.9,range_interpolation,700,"Brown St",,,Charlottesville,VA,"Albemarle County",22903,US,"TIGER/Line® dataset from the US Census Bureau"
"100 CHANCELLOR ST, Charlottesville, VA",38.035846,-78.50148,1,range_interpolation,100,"Chancellor St",,,Charlottesville,VA,"Albemarle County",22903,US,"TIGER/Line® dataset from the US Census Bureau"
"700 PROSPECT AVE, Charlottesville, VA",38.024646,-78.494399,1,rooftop,700,"Prospect Ave",,,Charlottesville,VA,"Albemarle County",22903,US,"Virginia Geographic Information Network (VGIN)"
"700 NASSAU ST, Charlottesville, VA",38.01939,-78.466963,1,range_interpolation,700,"Nassau St",,,Charlottesville,VA,"Albemarle County",22902,US,"TIGER/Line® dataset from the US Census Bureau"
"800 CABELL AVE, Charlottesville, VA",38.042215,-78.496417,1,range_interpolation,800,"Cabell Ave",,,Charlottesville,VA,"Albemarle County",22903,US,"TIGER/Line® dataset from the US Census Bureau"
"700 PROSPECT AVE, Charlottesville, VA",38.024646,-78.494399,1,rooftop,700,"Prospect Ave",,,Charlottesville,VA,"Albemarle County",22903,US,"Virginia Geographic Information Network (VGIN)"
"100 LANKFORD AVE, Charlottesville, VA",38.021191,-78.487098,1,rooftop,100,"Lankford Ave",,,Charlottesville,VA,"Albemarle County",22902,US,"City of Charlottesville"
"1200 E MARKET ST, Charlottesville, VA",38.026633,-78.46845,1,rooftop,1200,"E Market St",,,Charlottesville,VA,"Albemarle County",22901,US,"City of Charlottesville"
"800 MADISON AVE, Charlottesville, VA",38.041488,-78.494307,0.78,nearest_rooftop_match,780,"Madison Ave",,,Charlottesville,VA,"Albemarle County",22903,US,"Virginia Geographic Information Network (VGIN)"
"800 W MAIN ST, Charlottesville, VA",38.031848,-78.490814,1,range_interpolation,800,"W Main St",,,Charlottesville,VA,"Albemarle County",22903,US,"TIGER/Line® dataset from the US Census Bureau"
"1000 PRESTON AVE, Charlottesville, VA",38.039186,-78.491586,1,rooftop,1000,"Preston Ave",,,Charlottesville,VA,"Albemarle County",22901,US,"City of Charlottesville"
"1200 GROVE ST, Charlottesville, VA",38.029234,-78.500417,1,range_interpolation,1200,"Grove St",,,Charlottesville,VA,"Albemarle County",22903,US,"TIGER/Line® dataset from the US Census Bureau"
"500 E MAIN ST, Charlottesville, VA",38.030691,-78.480746,1,range_interpolation,500,"E Main St",,,Charlottesville,VA,"Albemarle County",22902,US,"TIGER/Line® dataset from the US Census Bureau"
"1500 GREENLEAF LN, Charlottesville, VA",38.049615,-78.483301,1,rooftop,1500,"Greenleaf Ln",,,Charlottesville,VA,"Albemarle County",22903,US,"City of Charlottesville"
"1700 ALLIED LN, Charlottesville, VA",38.041231,-78.479806,1,range_interpolation,1700,"Allied Ln",,,Charlottesville,VA,"Albemarle County",22903,US,"TIGER/Line® dataset from the US Census Bureau"
"600 BOOKER ST, Charlottesville, VA",38.038019,-78.489672,1,range_interpolation,600,"Booker St",,,Charlottesville,VA,"Albemarle County",22903,US,"TIGER/Line® dataset from the US Census Bureau"
"500 CLEVELAND AVE, Charlottesville, VA",38.017072,-78.498455,1,rooftop,500,"Cleveland Ave",,,Charlottesville,VA,"Albemarle County",22903,US,"Virginia Geographic Information Network (VGIN)"
"600 E MARKET ST, Charlottesville, VA",38.030267,-78.477549,1,range_interpolation,600,"Market St E",,,Charlottesville,VA,"Albemarle County",22902,US,"TIGER/Line® dataset from the US Census Bureau"
"1700 HYDRAULIC RD, Charlottesville, VA",38.058532,-78.488855,1,range_interpolation,1700,"Hydraulic Rd",,,Charlottesville,VA,"Albemarle County",22901,US,"TIGER/Line® dataset from the US Census Bureau"
"700 NALLE ST, Charlottesville, VA",38.029534,-78.491541,1,range_interpolation,700,"Nalle St",,,Charlottesville,VA,"Albemarle County",22903,US,"TIGER/Line® dataset from the US Census Bureau"
"500 PARK ST, Charlottesville, VA",38.03394,-78.475337,1,rooftop,500,"Park St",,,Charlottesville,VA,"Albemarle County",22902,US,"City of Charlottesville"
"1600 MERIDIAN ST, Charlottesville, VA",38.015145,-78.481442,1,range_interpolation,1600,"Meridian St",,,Charlottesville,VA,"Albemarle County",22902,US,"TIGER/Line® dataset from the US Census Bureau"
"100 LANKFORD AVE, Charlottesville, VA",38.021191,-78.487098,1,rooftop,100,"Lankford Ave",,,Charlottesville,VA,"Albemarle County",22902,US,"City of Charlottesville"
"1700 MONTICELLO RD, Charlottesville, VA",38.016504,-78.47295,1,rooftop,1700,"Monticello Rd",,,Charlottesville,VA,"Albemarle County",22902,US,"City of Charlottesville"
"200 W WATER ST, Charlottesville, VA",38.030184,-78.482828,1,rooftop,200,"W Water St",,,Charlottesville,VA,"Albemarle County",22902,US,"City of Charlottesville"
"200 W WATER ST, Charlottesville, VA",38.030184,-78.482828,1,rooftop,200,"W Water St",,,Charlottesville,VA,"Albemarle County",22902,US,"City of Charlottesville"
"1100 PARK ST, Charlottesville, VA",38.042084,-78.470246,1,rooftop,1100,"Park St",,,Charlottesville,VA,"Albemarle County",22901,US,"City of Charlottesville"
"700 PROSPECT AVE, Charlottesville, VA",38.024646,-78.494399,1,rooftop,700,"Prospect Ave",,,Charlottesville,VA,"Albemarle County",22903,US,"Virginia Geographic Information Network (VGIN)"
"500 RIDGE ST, Charlottesville, VA",38.027111,-78.486605,1,rooftop,500,"Ridge St",,,Charlottesville,VA,"Albemarle County",22901,US,"City of Charlottesville"
"1800 MONTICELLO RD, Charlottesville, VA",38.015537,-78.472869,1,rooftop,1800,"Monticello Rd",,,Charlottesville,VA,"Albemarle County",22903,US,"City of Charlottesville"
"200 W WATER ST, Charlottesville, VA",38.030184,-78.482828,1,rooftop,200,"W Water St",,,Charlottesville,VA,"Albemarle County",22902,US,"City of Charlottesville"
"200 4TH ST NW, Charlottesville, VA",38.031303,-78.486222,1,range_interpolation,200,"4th St NW",,,Charlottesville,VA,"Albemarle County",22903,US,"TIGER/Line® dataset from the US Census Bureau"
"2000 HOLIDAY DR, Charlottesville, VA",38.057743,-78.491336,1,rooftop,2000,"Holiday Dr",,,Charlottesville,VA,"Albemarle County",22901,US,"City of Charlottesville"
"100 AZALEA DR, Charlottesville, VA",38.015727,-78.511412,1,rooftop,100,"Azalea Dr",,,Charlottesville,VA,"Albemarle County",22903,US,"City of Charlottesville"
"1200 LONG ST, Charlottesville, VA",38.036838,-78.46429,1,rooftop,1200,"Long St",,,Charlottesville,VA,"Albemarle County",22901,US,"City of Charlottesville"
"1600 RICKY RD, Charlottesville, VA",38.060455,-78.502101,1,rooftop,1600,"Ricky Rd",,,Charlottesville,VA,"Albemarle County",22901,US,"City of Charlottesville"
"200 E MAIN ST, Charlottesville, VA",38.030391,-78.480746,1,range_interpolation,200,"E Main St",,,Charlottesville,VA,"Albemarle County",22902,US,"TIGER/Line® dataset from the US Census Bureau"
"800 E MARKET ST, Charlottesville, VA",38.02958,-78.476031,1,rooftop,800,"E Market St",,,Charlottesville,VA,"Albemarle County",22902,US,"Virginia Geographic Information Network (VGIN)"
"200 4TH ST NW, Charlottesville, VA",38.031303,-78.486222,1,range_interpolation,200,"4th St NW",,,Charlottesville,VA,"Albemarle County",22903,US,"TIGER/Line® dataset from the US Census Bureau"
"1200 E MARKET ST, Charlottesville, VA",38.026633,-78.46845,1,rooftop,1200,"E Market St",,,Charlottesville,VA,"Albemarle County",22901,US,"City of Charlottesville"
"500 CHERRY AVE, Charlottesville, VA",38.02629,-78.491051,1,rooftop,500,"Cherry Ave",,,Charlottesville,VA,"Albemarle County",22903,US,"City of Charlottesville"
"800 MCINTIRE RD, Charlottesville, VA",38.040717,-78.477038,1,range_interpolation,800,"McIntire Rd",,,Charlottesville,VA,"Albemarle County",22902,US,"TIGER/Line® dataset from the US Census Bureau"
"800 E JEFFERSON ST, Charlottesville, VA",38.03079,-78.475436,1,rooftop,800,"E Jefferson St",,,Charlottesville,VA,"Albemarle County",22902,US,"City of Charlottesville"
"NA UNKNOWN, Charlottesville, VA",38.026588,-78.48045,1,place,,,,,Charlottesville,VA,"Charlottesville city",22902,US,"TIGER/Line® dataset from the US Census Bureau"
"1400 MIDLAND ST, Charlottesville, VA",38.020478,-78.467982,1,rooftop,1400,"Midland St",,,Charlottesville,VA,"Albemarle County",22902,US,"City of Charlottesville"
"200 CARLTON RD, Charlottesville, VA",38.02338,-78.468643,1,rooftop,200,"Carlton Rd",,,Charlottesville,VA,"Albemarle County",22902,US,"City of Charlottesville"
"300 OLD LYNCHBURG RD, Charlottesville, VA",38.026588,-78.48045,0.33,place,,,,,Charlottesville,VA,"Charlottesville city",22902,US,"TIGER/Line® dataset from the US Census Bureau"
"1200 W MAIN ST, Charlottesville, VA",38.032645,-78.496684,1,rooftop,1200,"W Main St",,,Charlottesville,VA,"Albemarle County",22903,US,"Virginia Geographic Information Network (VGIN)"
"1400 VINE ST, Charlottesville, VA",38.019645,-78.46853,1,rooftop,1400,"Vine St",,,Charlottesville,VA,"Albemarle County",22902,US,"City of Charlottesville"
"1300 LONG ST, Charlottesville, VA",38.035319,-78.4627,1,rooftop,1300,"Long St",,,Charlottesville,VA,"Albemarle County",22901,US,"City of Charlottesville"
"600 UNIVERSITY WAY, Charlottesville, VA",38.04308,-78.503292,0.5,range_interpolation,600,"University Cir",,,Charlottesville,VA,"Albemarle County",22903,US,"TIGER/Line® dataset from the US Census Bureau"
"1100 EMMET ST N, Charlottesville, VA",38.051498,-78.5002,1,range_interpolation,1100,"Emmet St N",,,Charlottesville,VA,"Albemarle County",22903,US,"TIGER/Line® dataset from the US Census Bureau"
"1600 EMMET ST N, Charlottesville, VA",38.057817,-78.493732,1,rooftop,1600,"Emmet St N",,,Charlottesville,VA,"Albemarle County",22901,US,"City of Charlottesville"
"400 BRANDON AVE, Charlottesville, VA",38.03158,-78.50339,1,rooftop,400,"Brandon Ave",,,Charlottesville,VA,"Albemarle County",22903,US,"Virginia Geographic Information Network (VGIN)"
"200 E MAIN ST, Charlottesville, VA",38.030391,-78.480746,1,range_interpolation,200,"E Main St",,,Charlottesville,VA,"Albemarle County",22902,US,"TIGER/Line® dataset from the US Census Bureau"
"900 RAYMOND RD, Charlottesville, VA",38.016886,-78.493051,1,range_interpolation,900,"Raymond Rd",,,Charlottesville,VA,"Albemarle County",22902,US,"TIGER/Line® dataset from the US Census Bureau"
"200 SHAMROCK RD, Charlottesville, VA",38.026783,-78.510448,1,range_interpolation,200,"Shamrock Rd",,,Charlottesville,VA,"Albemarle County",22903,US,"TIGER/Line® dataset from the US Census Bureau"
"300 15TH ST NW, Charlottesville, VA",38.036158,-78.499392,1,range_interpolation,300,"15th St NW",,,Charlottesville,VA,"Albemarle County",22903,US,"TIGER/Line® dataset from the US Census Bureau"
"800 W MAIN ST, Charlottesville, VA",38.031848,-78.490814,1,range_interpolation,800,"W Main St",,,Charlottesville,VA,"Albemarle County",22903,US,"TIGER/Line® dataset from the US Census Bureau"
"400 2ND ST SE, Charlottesville, VA",38.032619,-78.479731,0.8,range_interpolation,400,"2nd St NE",,,Charlottesville,VA,"Albemarle County",22902,US,"TIGER/Line® dataset from the US Census Bureau"
"100 W MARKET ST, Charlottesville, VA",38.031682,-78.481145,0.8,range_interpolation,100,"Market St",,,Charlottesville,VA,"Albemarle County",22902,US,"TIGER/Line® dataset from the US Census Bureau"
"1600 MERIDIAN ST, Charlottesville, VA",38.015145,-78.481442,1,range_interpolation,1600,"Meridian St",,,Charlottesville,VA,"Albemarle County",22902,US,"TIGER/Line® dataset from the US Census Bureau"
"300 MEADE AVE, Charlottesville, VA",38.027733,-78.465583,1,rooftop,300,"Meade Ave",,,Charlottesville,VA,"Albemarle County",22902,US,"City of Charlottesville"
"200 SHAMROCK RD, Charlottesville, VA",38.026783,-78.510448,1,range_interpolation,200,"Shamrock Rd",,,Charlottesville,VA,"Albemarle County",22903,US,"TIGER/Line® dataset from the US Census Bureau"
"2300 ANGUS RD, Charlottesville, VA",38.061269,-78.497998,1,rooftop,2300,"Angus Rd",,,Charlottesville,VA,"Albemarle County",22901,US,"City of Charlottesville"
"1400 EMMET ST N, Charlottesville, VA",38.055785,-78.496363,1,range_interpolation,1400,"Emmet St N",,,Charlottesville,VA,"Albemarle County",22903,US,"TIGER/Line® dataset from the US Census Bureau"
"100 2ND ST SW, Charlottesville, VA",38.031193,-78.482244,1,range_interpolation,100,"2nd St SW",,,Charlottesville,VA,"Albemarle County",22902,US,"TIGER/Line® dataset from the US Census Bureau"
"100 1ST ST S, Charlottesville, VA",38.030923,-78.481507,1,range_interpolation,100,"1st St S",,,Charlottesville,VA,"Albemarle County",22902,US,"TIGER/Line® dataset from the US Census Bureau"
"200 W WATER ST, Charlottesville, VA",38.030184,-78.482828,1,rooftop,200,"W Water St",,,Charlottesville,VA,"Albemarle County",22902,US,"City of Charlottesville"
"1500 6TH ST SE, Charlottesville, VA",38.018683,-78.484921,1,rooftop,1500,"6th St SE",,,Charlottesville,VA,"Albemarle County",22902,US,"City of Charlottesville"
"1500 6TH ST SE, Charlottesville, VA",38.018683,-78.484921,1,rooftop,1500,"6th St SE",,,Charlottesville,VA,"Albemarle County",22902,US,"City of Charlottesville"
"900 1ST ST S, Charlottesville, VA",38.022908,-78.485672,1,rooftop,900,"1st St S",,,Charlottesville,VA,"Albemarle County",22902,US,"Virginia Geographic Information Network (VGIN)"
"100 W WATER ST, Charlottesville, VA",38.030191,-78.481861,1,range_interpolation,100,"Water St W",,,Charlottesville,VA,"Albemarle County",22902,US,"TIGER/Line® dataset from the US Census Bureau"
"900 PAGE ST, Charlottesville, VA",38.034765,-78.492001,1,rooftop,900,"Page St",,,Charlottesville,VA,"Albemarle County",22903,US,"City of Charlottesville"
"200 W MAIN ST, Charlottesville, VA",38.030748,-78.482695,1,rooftop,200,"W Main St",,,Charlottesville,VA,"Albemarle County",22901,US,"City of Charlottesville"
"200 RIVERSIDE AVE, Charlottesville, VA",38.021466,-78.456341,1,range_interpolation,200,"Riverside Ave",,,Charlottesville,VA,"Albemarle County",22902,US,"TIGER/Line® dataset from the US Census Bureau"
"200 E MARKET ST, Charlottesville, VA",38.031121,-78.480304,1,rooftop,200,"E Market St",,,Charlottesville,VA,"Albemarle County",22902,US,"City of Charlottesville"
"1500 CARLTON AVE, Charlottesville, VA",38.020895,-78.464037,1,rooftop,1500,"Carlton Ave",,,Charlottesville,VA,"Albemarle County",22902,US,"City of Charlottesville"
"200 WATER ST, Charlottesville, VA",38.02935,-78.480554,0.9,rooftop,200,"E Water St",,,Charlottesville,VA,"Albemarle County",22901,US,"City of Charlottesville"
"300 SPRUCE ST, Charlottesville, VA",38.025191,-78.471217,1,range_interpolation,300,"Spruce St",,,Charlottesville,VA,"Albemarle County",22902,US,"TIGER/Line® dataset from the US Census Bureau"
"800 PROSPECT AVE, Charlottesville, VA",38.021516,-78.496843,1,range_interpolation,800,"Prospect Ave",,,Charlottesville,VA,"Albemarle County",22903,US,"TIGER/Line® dataset from the US Census Bureau"
"800 ORANGEDALE AVE, Charlottesville, VA",38.021523,-78.497497,1,rooftop,800,"Orangedale Ave",,,Charlottesville,VA,"Albemarle County",22903,US,"City of Charlottesville"
"500 7 1/2 ST SW, Charlottesville, VA",38.027098,-78.49316,1,rooftop,500,"7 1/2 St SW",,,Charlottesville,VA,"Albemarle County",22903,US,"City of Charlottesville"
"400 GARRETT ST, Charlottesville, VA",38.027754,-78.481638,1,rooftop,400,"Garrett St",,,Charlottesville,VA,"Albemarle County",22902,US,"Virginia Geographic Information Network (VGIN)"
"100 PEREGORY LN, Charlottesville, VA",38.005309,-78.494102,1,range_interpolation,100,"Peregory Ln",,,Charlottesville,VA,"Albemarle County",22902,US,"TIGER/Line® dataset from the US Census Bureau"
"600 E MARKET ST, Charlottesville, VA",38.030267,-78.477549,1,range_interpolation,600,"Market St E",,,Charlottesville,VA,"Albemarle County",22902,US,"TIGER/Line® dataset from the US Census Bureau"
"800 W MAIN ST, Charlottesville, VA",38.031848,-78.490814,1,range_interpolation,800,"W Main St",,,Charlottesville,VA,"Albemarle County",22903,US,"TIGER/Line® dataset from the US Census Bureau"
"500 CAROLINE AVE, Charlottesville, VA",38.029594,-78.463905,1,range_interpolation,500,"Caroline Ave",,,Charlottesville,VA,"Albemarle County",22902,US,"TIGER/Line® dataset from the US Census Bureau"
"1100 EMMET ST N, Charlottesville, VA",38.051498,-78.5002,1,range_interpolation,1100,"Emmet St N",,,Charlottesville,VA,"Albemarle County",22903,US,"TIGER/Line® dataset from the US Census Bureau"
"500 PARK ST, Charlottesville, VA",38.03394,-78.475337,1,rooftop,500,"Park St",,,Charlottesville,VA,"Albemarle County",22902,US,"City of Charlottesville"
"600 E WATER ST, Charlottesville, VA",38.028772,-78.477348,1,rooftop,600,"E Water St",,,Charlottesville,VA,"Albemarle County",22903,US,"City of Charlottesville"
"800 HARDY DR, Charlottesville, VA",38.033559,-78.490241,1,range_interpolation,800,"Hardy Dr",,,Charlottesville,VA,"Albemarle County",22903,US,"TIGER/Line® dataset from the US Census Bureau"
"200 W WATER ST, Charlottesville, VA",38.030184,-78.482828,1,rooftop,200,"W Water St",,,Charlottesville,VA,"Albemarle County",22902,US,"City of Charlottesville"
"200 W WATER ST, Charlottesville, VA",38.030184,-78.482828,1,rooftop,200,"W Water St",,,Charlottesville,VA,"Albemarle County",22902,US,"City of Charlottesville"
"100 BURNET WAY, Charlottesville, VA",38.02398,-78.487984,1,rooftop,100,"Burnet Way",,,Charlottesville,VA,"Albemarle County",22902,US,"City of Charlottesville"
"900 ROSE HILL DR, Charlottesville, VA",37.999236,-78.524597,0.5,range_interpolation,900,"Ross Ct",,,Charlottesville,VA,"Albemarle County",22902,US,"TIGER/Line® dataset from the US Census Bureau"
"1100 JOHN ST, Charlottesville, VA",38.035942,-78.496167,1,range_interpolation,1100,"John St",,,Charlottesville,VA,"Albemarle County",22903,US,"TIGER/Line® dataset from the US Census Bureau"
"1300 CHESAPEAKE ST, Charlottesville, VA",38.027226,-78.466625,1,rooftop,1300,"Chesapeake St",,,Charlottesville,VA,"Albemarle County",22902,US,"City of Charlottesville"
"1600 KING MOUNTAIN RD, Charlottesville, VA",38.059594,-78.478169,1,range_interpolation,1600,"King Mountain Rd",,,Charlottesville,VA,"Albemarle County",22901,US,"TIGER/Line® dataset from the US Census Bureau"
"400 4TH ST, Charlottesville, VA",38.032137,-78.478169,0.9,range_interpolation,400,"4th St NE",,,Charlottesville,VA,"Albemarle County",22902,US,"TIGER/Line® dataset from the US Census Bureau"
"400 4TH ST, Charlottesville, VA",38.032137,-78.478169,0.9,range_interpolation,400,"4th St NE",,,Charlottesville,VA,"Albemarle County",22902,US,"TIGER/Line® dataset from the US Census Bureau"
"600 MONTICELLO AVE, Charlottesville, VA",38.024991,-78.480685,1,range_interpolation,600,"Monticello Ave",,,Charlottesville,VA,"Albemarle County",22902,US,"TIGER/Line® dataset from the US Census Bureau"
"1400 BURGESS LN, Charlottesville, VA",38.023265,-78.465232,1,range_interpolation,1400,"Burgess Ln",,,Charlottesville,VA,"Albemarle County",22902,US,"TIGER/Line® dataset from the US Census Bureau"
"1700 CHERRY AVE, Charlottesville, VA",38.021104,-78.509653,1,rooftop,1700,"Cherry Ave",,,Charlottesville,VA,"Albemarle County",22903,US,"City of Charlottesville"
"500 BRANDON AVE, Charlottesville, VA",38.030874,-78.504063,1,range_interpolation,500,"Brandon Ave",,,Charlottesville,VA,"Albemarle County",22903,US,"TIGER/Line® dataset from the US Census Bureau"
"900 RIVES ST, Charlottesville, VA",38.017745,-78.46969,1,rooftop,900,"Rives St",,,Charlottesville,VA,"Albemarle County",22902,US,"City of Charlottesville"
"100 W MAIN ST, Charlottesville, VA",38.030482,-78.481848,1,rooftop,100,"W Main St",,,Charlottesville,VA,"Albemarle County",22902,US,"Virginia Geographic Information Network (VGIN)"
"1300 MOUNTAIN VIEW ST, Charlottesville, VA",38.014226,-78.473591,1,range_interpolation,1300,"Mountain View St",,,Charlottesville,VA,"Albemarle County",22902,US,"TIGER/Line® dataset from the US Census Bureau"
"400 14TH ST NW, Charlottesville, VA",38.037655,-78.497624,1,range_interpolation,400,"14th St NW",,,Charlottesville,VA,"Albemarle County",22903,US,"TIGER/Line® dataset from the US Census Bureau"
"1200 CEDARS CT, Charlottesville, VA",38.055196,-78.5015,1,range_interpolation,1200,"Cedars Ct",,,Charlottesville,VA,"Albemarle County",22903,US,"TIGER/Line® dataset from the US Census Bureau"
"1300 CHERRY AVE, Charlottesville, VA",38.025894,-78.500693,1,rooftop,1300,"Cherry Ave",,,Charlottesville,VA,"Albemarle County",22903,US,"City of Charlottesville"
"600 DICE ST, Charlottesville, VA",38.029163,-78.489832,1,rooftop,600,"Dice St",,,Charlottesville,VA,"Albemarle County",22903,US,"City of Charlottesville"
"300 W MAIN ST, Charlottesville, VA",38.030167,-78.485534,1,rooftop,300,"W Main St",,,Charlottesville,VA,"Albemarle County",22902,US,"City of Charlottesville"
"1300 CARLTON AVE, Charlottesville, VA",38.022084,-78.469217,1,rooftop,1300,"Carlton Ave",,,Charlottesville,VA,"Albemarle County",22902,US,"City of Charlottesville"
"400 4TH ST NE, Charlottesville, VA",38.032137,-78.478169,1,range_interpolation,400,"4th St NE",,,Charlottesville,VA,"Albemarle County",22902,US,"TIGER/Line® dataset from the US Census Bureau"
"2400 FONTAINE AVE, Charlottesville, VA",38.025784,-78.518964,1,rooftop,2400,"Fontaine Ave",,,Charlottesville,VA,"Albemarle County",22901,US,"City of Charlottesville"
"2400 FONTAINE AVE, Charlottesville, VA",38.025784,-78.518964,1,rooftop,2400,"Fontaine Ave",,,Charlottesville,VA,"Albemarle County",22901,US,"City of Charlottesville"
"300 E MARKET ST, Charlottesville, VA",38.030905,-78.479564,1,rooftop,300,"E Market St",,,Charlottesville,VA,"Albemarle County",22902,US,"City of Charlottesville"
"1400 RUGBY AVE, Charlottesville, VA",38.044705,-78.480152,1,range_interpolation,1400,"Rugby Ave",,,Charlottesville,VA,"Albemarle County",22903,US,"TIGER/Line® dataset from the US Census Bureau"
"100 W MARKET ST, Charlottesville, VA",38.031682,-78.481145,0.8,range_interpolation,100,"Market St",,,Charlottesville,VA,"Albemarle County",22902,US,"TIGER/Line® dataset from the US Census Bureau"
"200 GARRETT ST, Charlottesville, VA",38.028249,-78.482711,1,rooftop,200,"Garrett St",,,Charlottesville,VA,"Albemarle County",22902,US,"City of Charlottesville"
"1000 CHERRY AVE, Charlottesville, VA",38.026722,-78.497519,1,rooftop,1000,"Cherry Ave",,,Charlottesville,VA,"Albemarle County",22903,US,"City of Charlottesville"
"1400 MELBOURNE RD, Charlottesville, VA",38.052489,-78.475702,1,rooftop,1400,"Melbourne Rd",,,Charlottesville,VA,"Albemarle County",22902,US,"City of Charlottesville"
"100 BAYLOR LN, Charlottesville, VA",38.018886,-78.492384,1,rooftop,100,"Baylor Ln",,,Charlottesville,VA,"Albemarle County",22902,US,"City of Charlottesville"
"500 17TH ST NW, Charlottesville, VA",38.04023,-78.499922,1,range_interpolation,500,"17th St NW",,,Charlottesville,VA,"Albemarle County",22903,US,"TIGER/Line® dataset from the US Census Bureau"
"1900 BARRACKS RD, Charlottesville, VA",38.048651,-78.495318,1,range_interpolation,1900,"Barracks Rd",,,Charlottesville,VA,"Albemarle County",22903,US,"TIGER/Line® dataset from the US Census Bureau"
"1600 MERIDIAN ST, Charlottesville, VA",38.015145,-78.481442,1,range_interpolation,1600,"Meridian St",,,Charlottesville,VA,"Albemarle County",22902,US,"TIGER/Line® dataset from the US Census Bureau"
"500 GARRETT ST, Charlottesville, VA",38.027836,-78.479737,1,range_interpolation,500,"Garrett St",,,Charlottesville,VA,"Albemarle County",22902,US,"TIGER/Line® dataset from the US Census Bureau"
"600 PRESTON AVE, Charlottesville, VA",38.034938,-78.486011,1,rooftop,600,"Preston Ave",,,Charlottesville,VA,"Albemarle County",22903,US,"City of Charlottesville"
"600 PRESTON AVE, Charlottesville, VA",38.034938,-78.486011,1,rooftop,600,"Preston Ave",,,Charlottesville,VA,"Albemarle County",22903,US,"City of Charlottesville"
"500 PARK ST, Charlottesville, VA",38.03394,-78.475337,1,rooftop,500,"Park St",,,Charlottesville,VA,"Albemarle County",22902,US,"City of Charlottesville"
"700 PROSPECT AVE, Charlottesville, VA",38.024646,-78.494399,1,rooftop,700,"Prospect Ave",,,Charlottesville,VA,"Albemarle County",22903,US,"Virginia Geographic Information Network (VGIN)"
"400 4TH ST NW, Charlottesville, VA",38.033577,-78.485453,1,range_interpolation,400,"4th St NW",,,Charlottesville,VA,"Albemarle County",22903,US,"TIGER/Line® dataset from the US Census Bureau"
"100 CLARKE CT, Charlottesville, VA",38.02695,-78.515096,1,rooftop,100,"Clarke Ct",,,Charlottesville,VA,"Albemarle County",22901,US,"City of Charlottesville"
"600 RUGBY RD, Charlottesville, VA",38.041804,-78.499982,1,rooftop,600,"Rugby Rd",,,Charlottesville,VA,"Albemarle County",22903,US,"City of Charlottesville"
"600 BEECHWOOD DR, Charlottesville, VA",38.045757,-78.468188,1,range_interpolation,600,"Beechwood Dr",,,Charlottesville,VA,"Albemarle County",22901,US,"TIGER/Line® dataset from the US Census Bureau"
"900 EMMET ST, Charlottesville, VA",38.048623,-78.503011,0.9,rooftop,900,"Emmet St N",,,Charlottesville,VA,"Albemarle County",22903,US,"City of Charlottesville"
"600 E JEFFERSON ST, Charlottesville, VA",38.031114,-78.476531,0.8,nearest_rooftop_match,612,"E Jefferson St",,,Charlottesville,VA,"Albemarle County",22902,US,"Virginia Geographic Information Network (VGIN)"
"1300 RIVERDALE DR, Charlottesville, VA",38.035166,-78.461418,1,range_interpolation,1300,"Riverdale Dr",,,Charlottesville,VA,"Albemarle County",22902,US,"TIGER/Line® dataset from the US Census Bureau"
"1000 CARLTON AVE, Charlottesville, VA",38.024172,-78.474491,1,range_interpolation,1000,"Carlton Ave",,,Charlottesville,VA,"Albemarle County",22902,US,"TIGER/Line® dataset from the US Census Bureau"
"400 RIDGE MCINTIRE RD, Charlottesville, VA",38.03264,-78.484434,1,range_interpolation,400,"Ridge Mcintire Rd",,,Charlottesville,VA,"Albemarle County",22903,US,"TIGER/Line® dataset from the US Census Bureau"
"600 BOLLING AVE, Charlottesville, VA",38.024116,-78.481209,1,rooftop,600,"Bolling Ave",,,Charlottesville,VA,"Albemarle County",22902,US,"City of Charlottesville"
"2100 ARLINGTON BLVD, Charlottesville, VA",38.049485,-78.506608,1,range_interpolation,2100,"Arlington Blvd",,,Charlottesville,VA,"Albemarle County",22903,US,"TIGER/Line® dataset from the US Census Bureau"
"600 ELIZABETH AVE, Charlottesville, VA",38.047943,-78.463205,1,rooftop,600,"Elizabeth Ave",,,Charlottesville,VA,"Albemarle County",22901,US,"City of Charlottesville"
"1900 ARLINGTON BLVD, Charlottesville, VA",38.047832,-78.504303,1,rooftop,1900,"Arlington Blvd",,,Charlottesville,VA,"Albemarle County",22903,US,"City of Charlottesville"
"200 WATER ST, Charlottesville, VA",38.02935,-78.480554,0.9,rooftop,200,"E Water St",,,Charlottesville,VA,"Albemarle County",22901,US,"City of Charlottesville"
"200 FAIRWAY AVE, Charlottesville, VA",38.024714,-78.463696,1,range_interpolation,200,"Fairway Ave",,,Charlottesville,VA,"Albemarle County",22902,US,"TIGER/Line® dataset from the US Census Bureau"
"200 RIDGE ST, Charlottesville, VA",38.029765,-78.485528,1,range_interpolation,200,"State Rte 631",,,Charlottesville,VA,"Albemarle County",22902,US,"TIGER/Line® dataset from the US Census Bureau"
"300 6TH ST SW, Charlottesville, VA",38.029435,-78.489618,1,range_interpolation,300,"6th St SW",,,Charlottesville,VA,"Albemarle County",22903,US,"TIGER/Line® dataset from the US Census Bureau"
"200 FAIRWAY AVE, Charlottesville, VA",38.024714,-78.463696,1,range_interpolation,200,"Fairway Ave",,,Charlottesville,VA,"Albemarle County",22902,US,"TIGER/Line® dataset from the US Census Bureau"
"500 PARK ST, Charlottesville, VA",38.03394,-78.475337,1,rooftop,500,"Park St",,,Charlottesville,VA,"Albemarle County",22902,US,"City of Charlottesville"
"500 1ST ST S, Charlottesville, VA",38.026837,-78.483051,1,rooftop,500,"1st St S",,,Charlottesville,VA,"Albemarle County",22902,US,"City of Charlottesville"
"400 2ND ST SE, Charlottesville, VA",38.032619,-78.479731,0.8,range_interpolation,400,"2nd St NE",,,Charlottesville,VA,"Albemarle County",22902,US,"TIGER/Line® dataset from the US Census Bureau"
"400 MOBILE LN, Charlottesville, VA",38.012056,-78.516812,1,range_interpolation,400,"Mobile Ln",,,Charlottesville,VA,"Albemarle County",22903,US,"TIGER/Line® dataset from the US Census Bureau"
"1400 VIRGINIA AVE, Charlottesville, VA",38.037955,-78.497624,1,range_interpolation,1400,"Virginia Ave",,,Charlottesville,VA,"Albemarle County",22903,US,"TIGER/Line® dataset from the US Census Bureau"
"2300 ANGUS RD, Charlottesville, VA",38.061269,-78.497998,1,rooftop,2300,"Angus Rd",,,Charlottesville,VA,"Albemarle County",22901,US,"City of Charlottesville"
"2100 BARRACKS RD, Charlottesville, VA",38.052715,-78.499043,1,range_interpolation,2100,"Barracks Rd",,,Charlottesville,VA,"Albemarle County",22903,US,"TIGER/Line® dataset from the US Census Bureau"
"1000 BELMONT AVE, Charlottesville, VA",38.022736,-78.473958,1,rooftop,1000,"Belmont Ave",,,Charlottesville,VA,"Albemarle County",22902,US,"City of Charlottesville"
"1200 WERTLAND ST, Charlottesville, VA",38.034171,-78.496505,1,rooftop,1200,"Wertland St",,,Charlottesville,VA,"Albemarle County",22903,US,"Virginia Geographic Information Network (VGIN)"
"200 W WATER ST, Charlottesville, VA",38.030184,-78.482828,1,rooftop,200,"W Water St",,,Charlottesville,VA,"Albemarle County",22902,US,"City of Charlottesville"
"900 W MAIN ST, Charlottesville, VA",38.031799,-78.494644,1,rooftop,900,"W Main St",,,Charlottesville,VA,"Albemarle County",22903,US,"City of Charlottesville"
"200 13TH ST NW, Charlottesville, VA",38.026588,-78.48045,0.33,place,,,,,Charlottesville,VA,"Charlottesville city",22902,US,"TIGER/Line® dataset from the US Census Bureau"
"900 1ST ST S, Charlottesville, VA",38.022908,-78.485672,1,rooftop,900,"1st St S",,,Charlottesville,VA,"Albemarle County",22902,US,"Virginia Geographic Information Network (VGIN)"
"1500 ROSA TER, Charlottesville, VA",38.019814,-78.486029,1,range_interpolation,1500,"Rosa Ter",,,Charlottesville,VA,"Albemarle County",22902,US,"TIGER/Line® dataset from the US Census Bureau"
"300 MEADE AVE, Charlottesville, VA",38.027733,-78.465583,1,rooftop,300,"Meade Ave",,,Charlottesville,VA,"Albemarle County",22902,US,"City of Charlottesville"
"400 4TH ST NW, Charlottesville, VA",38.033577,-78.485453,1,range_interpolation,400,"4th St NW",,,Charlottesville,VA,"Albemarle County",22903,US,"TIGER/Line® dataset from the US Census Bureau"
"900 GRADY AVE, Charlottesville, VA",38.038132,-78.490071,1,range_interpolation,900,"Grady Ave",,,Charlottesville,VA,"Albemarle County",22903,US,"TIGER/Line® dataset from the US Census Bureau"
"100 GOODMAN ST, Charlottesville, VA",38.027592,-78.474548,1,range_interpolation,100,"Goodman St",,,Charlottesville,VA,"Albemarle County",22902,US,"TIGER/Line® dataset from the US Census Bureau"
"1000 LOCUST AVE, Charlottesville, VA",38.040289,-78.462727,1,rooftop,1000,"Locust Ave",,,Charlottesville,VA,"Albemarle County",22901,US,"City of Charlottesville"
"600 BELMONT AVE, Charlottesville, VA",38.025692,-78.480179,1,range_interpolation,600,"Belmont Ave",,,Charlottesville,VA,"Albemarle County",22902,US,"TIGER/Line® dataset from the US Census Bureau"
"1500 ROSA TER, Charlottesville, VA",38.019814,-78.486029,1,range_interpolation,1500,"Rosa Ter",,,Charlottesville,VA,"Albemarle County",22902,US,"TIGER/Line® dataset from the US Census Bureau"
"100 THOMAS DR, Charlottesville, VA",38.02574,-78.507609,1,range_interpolation,100,"Thomas Dr",,,Charlottesville,VA,"Albemarle County",22903,US,"TIGER/Line® dataset from the US Census Bureau"
"1000 CHERRY AVE, Charlottesville, VA",38.026722,-78.497519,1,rooftop,1000,"Cherry Ave",,,Charlottesville,VA,"Albemarle County",22903,US,"City of Charlottesville"
"700 MONTICELLO AVE, Charlottesville, VA",38.024058,-78.479005,1,rooftop,700,"Monticello Ave",,,Charlottesville,VA,"Albemarle County",22902,US,"City of Charlottesville"
"900 CHARLTON AVE, Charlottesville, VA",38.038438,-78.487242,1,range_interpolation,900,"Charlton Ave",,,Charlottesville,VA,"Albemarle County",22903,US,"TIGER/Line® dataset from the US Census Bureau"
"100 12 1/2 ST NW, Charlottesville, VA",38.033051,-78.497541,1,range_interpolation,100,"12 1/2 St NW",,,Charlottesville,VA,"Albemarle County",22903,US,"TIGER/Line® dataset from the US Census Bureau"
"1000 CHERRY AVE, Charlottesville, VA",38.026722,-78.497519,1,rooftop,1000,"Cherry Ave",,,Charlottesville,VA,"Albemarle County",22903,US,"City of Charlottesville"
"700 PROSPECT AVE, Charlottesville, VA",38.024646,-78.494399,1,rooftop,700,"Prospect Ave",,,Charlottesville,VA,"Albemarle County",22903,US,"Virginia Geographic Information Network (VGIN)"
"100 LANDFORD AVE, Charlottesville, VA",38.026588,-78.48045,0.33,place,,,,,Charlottesville,VA,"Charlottesville city",22902,US,"TIGER/Line® dataset from the US Census Bureau"
"1400 SHORT 18TH ST, Charlottesville, VA",38.026538,-78.462371,1,rooftop,1400,"Short 18th St",,,Charlottesville,VA,"Albemarle County",22902,US,"City of Charlottesville"
"900 W MAIN ST, Charlottesville, VA",38.031799,-78.494644,1,rooftop,900,"W Main St",,,Charlottesville,VA,"Albemarle County",22903,US,"City of Charlottesville"
"400 VALLEY RD EXT, Charlottesville, VA",38.02663,-78.504105,1,rooftop,400,"Valley Rd Ext",,,Charlottesville,VA,"Albemarle County",22901,US,"City of Charlottesville"
"2000 HOLIDAY DR, Charlottesville, VA",38.057743,-78.491336,1,rooftop,2000,"Holiday Dr",,,Charlottesville,VA,"Albemarle County",22901,US,"City of Charlottesville"
"500 PARK ST, Charlottesville, VA",38.03394,-78.475337,1,rooftop,500,"Park St",,,Charlottesville,VA,"Albemarle County",22902,US,"City of Charlottesville"
"500 PARK ST, Charlottesville, VA",38.03394,-78.475337,1,rooftop,500,"Park St",,,Charlottesville,VA,"Albemarle County",22902,US,"City of Charlottesville"
"1800 HYDRAULIC RD, Charlottesville, VA",38.060222,-78.490328,1,range_interpolation,1800,"Hydraulic Rd",,,Charlottesville,VA,"Albemarle County",22901,US,"TIGER/Line® dataset from the US Census Bureau"
"700 WALKER SQ, Charlottesville, VA",38.030203,-78.491156,1,rooftop,700,"Walker Sq",,,Charlottesville,VA,"Albemarle County",22902,US,"City of Charlottesville"
"1700 ALLIED LN, Charlottesville, VA",38.041231,-78.479806,1,range_interpolation,1700,"Allied Ln",,,Charlottesville,VA,"Albemarle County",22903,US,"TIGER/Line® dataset from the US Census Bureau"
"1800 RUGBY AVE, Charlottesville, VA",38.043688,-78.497414,0.6,range_interpolation,1800,"Rugby Pl",,,Charlottesville,VA,"Albemarle County",22903,US,"TIGER/Line® dataset from the US Census Bureau"
"900 ANDERSON ST, Charlottesville, VA",38.035698,-78.490828,1,range_interpolation,900,"Anderson St",,,Charlottesville,VA,"Albemarle County",22903,US,"TIGER/Line® dataset from the US Census Bureau"
"500 W MAIN ST, Charlottesville, VA",38.030788,-78.487892,1,rooftop,500,"W Main St",,,Charlottesville,VA,"Albemarle County",22903,US,"Virginia Geographic Information Network (VGIN)"
"700 6TH ST SE, Charlottesville, VA",38.025291,-78.480685,1,range_interpolation,700,"6th St SE",,,Charlottesville,VA,"Albemarle County",22902,US,"TIGER/Line® dataset from the US Census Bureau"
"1000 ELLIOTT AVE, Charlottesville, VA",38.018797,-78.476646,1,rooftop,1000,"Elliott Ave",,,Charlottesville,VA,"Albemarle County",22902,US,"City of Charlottesville"
"500 PARK ST, Charlottesville, VA",38.03394,-78.475337,1,rooftop,500,"Park St",,,Charlottesville,VA,"Albemarle County",22902,US,"City of Charlottesville"
"500 PARK ST, Charlottesville, VA",38.03394,-78.475337,1,rooftop,500,"Park St",,,Charlottesville,VA,"Albemarle County",22902,US,"City of Charlottesville"
"500 9TH ST SE, Charlottesville, VA",38.027915,-78.494941,0.9,rooftop,500,"9th St SW",,,Charlottesville,VA,"Albemarle County",22903,US,"City of Charlottesville"
"400 GARRETT ST, Charlottesville, VA",38.027754,-78.481638,1,rooftop,400,"Garrett St",,,Charlottesville,VA,"Albemarle County",22902,US,"Virginia Geographic Information Network (VGIN)"
"800 CHERRY AVE, Charlottesville, VA",38.028394,-78.4925,1,range_interpolation,800,"Cherry Ave",,,Charlottesville,VA,"Albemarle County",22903,US,"TIGER/Line® dataset from the US Census Bureau"
"1500 GRADY AVE, Charlottesville, VA",38.040356,-78.497622,1,rooftop,1500,"Grady Ave",,,Charlottesville,VA,"Albemarle County",22903,US,"City of Charlottesville"
"1500 ROSA TER, Charlottesville, VA",38.019814,-78.486029,1,range_interpolation,1500,"Rosa Ter",,,Charlottesville,VA,"Albemarle County",22902,US,"TIGER/Line® dataset from the US Census Bureau"
"500 PATON ST, Charlottesville, VA",38.026937,-78.501907,0.8,nearest_rooftop_match,508,"Paton St",,,Charlottesville,VA,"Albemarle County",22903,US,"Virginia Geographic Information Network (VGIN)"
"400 4TH ST NE, Charlottesville, VA",38.032137,-78.478169,1,range_interpolation,400,"4th St NE",,,Charlottesville,VA,"Albemarle County",22902,US,"TIGER/Line® dataset from the US Census Bureau"
"800 KING ST, Charlottesville, VA",38.029009,-78.493864,1,range_interpolation,800,"King St",,,Charlottesville,VA,"Albemarle County",22903,US,"TIGER/Line® dataset from the US Census Bureau"
"100 BYPASS, Charlottesville, VA",38.026588,-78.48045,0.33,place,,,,,Charlottesville,VA,"Charlottesville city",22902,US,"TIGER/Line® dataset from the US Census Bureau"
"1500 DAIRY RD, Charlottesville, VA",38.052849,-78.48642,1,range_interpolation,1500,"Dairy Rd",,,Charlottesville,VA,"Albemarle County",22903,US,"TIGER/Line® dataset from the US Census Bureau"
"400 ROBERTSON AVE, Charlottesville, VA",38.024258,-78.510914,1,rooftop,400,"Robertson Ave",,,Charlottesville,VA,"Albemarle County",22903,US,"City of Charlottesville"
"100 W MARKET ST, Charlottesville, VA",38.031682,-78.481145,0.8,range_interpolation,100,"Market St",,,Charlottesville,VA,"Albemarle County",22902,US,"TIGER/Line® dataset from the US Census Bureau"
"300 SPRING ST, Charlottesville, VA",38.029234,-78.500417,1,range_interpolation,300,"Spring St",,,Charlottesville,VA,"Albemarle County",22903,US,"TIGER/Line® dataset from the US Census Bureau"
"100 WESTERLY AVE, Charlottesville, VA",38.026067,-78.522142,1,rooftop,100,"Westerly Ave",,,Charlottesville,VA,"Albemarle County",22902,US,"City of Charlottesville"
"1800 JEFFERSON PARK AVE, Charlottesville, VA",38.028293,-78.508006,1,rooftop,1800,"Jefferson Park Ave",,,Charlottesville,VA,"Albemarle County",22903,US,"City of Charlottesville"
"1700 JEFFERSON PARK AVE, Charlottesville, VA",38.030234,-78.508221,1,rooftop,1700,"Jefferson Park Ave",,,Charlottesville,VA,"Albemarle County",22903,US,"City of Charlottesville"
"400 250 BYPASS, Charlottesville, VA",38.045382,-78.477166,0.67,nearest_rooftop_match,425,"250th Byp",,,Charlottesville,VA,"Albemarle County",22901,US,"Virginia Geographic Information Network (VGIN)"
"500 1ST ST N, Charlottesville, VA",38.034447,-78.479734,1,range_interpolation,500,"1st St N",,,Charlottesville,VA,"Albemarle County",22902,US,"TIGER/Line® dataset from the US Census Bureau"
"1600 EMMET ST N, Charlottesville, VA",38.057817,-78.493732,1,rooftop,1600,"Emmet St N",,,Charlottesville,VA,"Albemarle County",22901,US,"City of Charlottesville"
"900 FOREST ST, Charlottesville, VA",38.038169,-78.485496,1,range_interpolation,900,"Forest St",,,Charlottesville,VA,"Albemarle County",22903,US,"TIGER/Line® dataset from the US Census Bureau"
"700 PROSPECT AVE, Charlottesville, VA",38.024646,-78.494399,1,rooftop,700,"Prospect Ave",,,Charlottesville,VA,"Albemarle County",22903,US,"Virginia Geographic Information Network (VGIN)"
"400 W MAIN ST, Charlottesville, VA",38.030616,-78.487044,1,range_interpolation,400,"W Main St",,,Charlottesville,VA,"Albemarle County",22903,US,"TIGER/Line® dataset from the US Census Bureau"
"800 HARDY DR, Charlottesville, VA",38.033559,-78.490241,1,range_interpolation,800,"Hardy Dr",,,Charlottesville,VA,"Albemarle County",22903,US,"TIGER/Line® dataset from the US Census Bureau"
"1700 EMMET ST N, Charlottesville, VA",38.058905,-78.493464,1,rooftop,1700,"Emmet St N",,,Charlottesville,VA,"Albemarle County",22903,US,"City of Charlottesville"
"100 RIDGE ST, Charlottesville, VA",38.029753,-78.484568,1,rooftop,100,"Ridge St",,,Charlottesville,VA,"Albemarle County",22901,US,"City of Charlottesville"
"100 RIDGE ST, Charlottesville, VA",38.029753,-78.484568,1,rooftop,100,"Ridge St",,,Charlottesville,VA,"Albemarle County",22901,US,"City of Charlottesville"
"300 CARLTON RD, Charlottesville, VA",38.022432,-78.469845,1,rooftop,300,"Carlton Rd",,,Charlottesville,VA,"Albemarle County",22902,US,"City of Charlottesville"
"200 W SOUTH ST, Charlottesville, VA",38.029406,-78.483094,1,rooftop,200,"W South St",,,Charlottesville,VA,"Albemarle County",22902,US,"City of Charlottesville"
"300 CARLTON RD, Charlottesville, VA",38.022432,-78.469845,1,rooftop,300,"Carlton Rd",,,Charlottesville,VA,"Albemarle County",22902,US,"City of Charlottesville"
"1400 HAMPTON ST, Charlottesville, VA",38.019047,-78.469152,1,range_interpolation,1400,"Hampton St",,,Charlottesville,VA,"Albemarle County",22902,US,"TIGER/Line® dataset from the US Census Bureau"
"1900 EMMET ST N, Charlottesville, VA",38.060855,-78.492224,1,range_interpolation,1900,"Emmet St N",,,Charlottesville,VA,"Albemarle County",22903,US,"TIGER/Line® dataset from the US Census Bureau"
"900 HENRY AVE, Charlottesville, VA",38.038906,-78.48683,1,rooftop,900,"Henry Ave",,,Charlottesville,VA,"Albemarle County",22902,US,"City of Charlottesville"
"600 E MARKET ST, Charlottesville, VA",38.030267,-78.477549,1,range_interpolation,600,"Market St E",,,Charlottesville,VA,"Albemarle County",22902,US,"TIGER/Line® dataset from the US Census Bureau"
"600 E MARKET ST, Charlottesville, VA",38.030267,-78.477549,1,range_interpolation,600,"Market St E",,,Charlottesville,VA,"Albemarle County",22902,US,"TIGER/Line® dataset from the US Census Bureau"
"500 HARRIS RD, Charlottesville, VA",38.014946,-78.503703,1,range_interpolation,500,"Harris Rd",,,Charlottesville,VA,"Albemarle County",22903,US,"TIGER/Line® dataset from the US Census Bureau"
"500 MEADE AVE, Charlottesville, VA",38.030016,-78.46495,1,range_interpolation,500,"Meade Ave",,,Charlottesville,VA,"Albemarle County",22902,US,"TIGER/Line® dataset from the US Census Bureau"
"100 RIDGE ST, Charlottesville, VA",38.029753,-78.484568,1,rooftop,100,"Ridge St",,,Charlottesville,VA,"Albemarle County",22901,US,"City of Charlottesville"
"400 4TH ST NW, Charlottesville, VA",38.033577,-78.485453,1,range_interpolation,400,"4th St NW",,,Charlottesville,VA,"Albemarle County",22903,US,"TIGER/Line® dataset from the US Census Bureau"
"100 STADIUM RD, Charlottesville, VA",38.032061,-78.509002,1,rooftop,100,"Stadium Rd",,,Charlottesville,VA,"Albemarle County",22901,US,"City of Charlottesville"
"400 E MARKET ST, Charlottesville, VA",38.030675,-78.478873,1,range_interpolation,400,"Market St E",,,Charlottesville,VA,"Albemarle County",22902,US,"TIGER/Line® dataset from the US Census Bureau"
"1200 CEDARS CT, Charlottesville, VA",38.055196,-78.5015,1,range_interpolation,1200,"Cedars Ct",,,Charlottesville,VA,"Albemarle County",22903,US,"TIGER/Line® dataset from the US Census Bureau"
"600 250 BYPASS, Charlottesville, VA",38.039765,-78.47183,0.81,nearest_rooftop_match,606,"250th Byp",,,Charlottesville,VA,"Albemarle County",22902,US,"Virginia Geographic Information Network (VGIN)"
"900 5TH ST SW, Charlottesville, VA",38.021234,-78.493889,1,range_interpolation,900,"5th St SW",,,Charlottesville,VA,"Albemarle County",22902,US,"TIGER/Line® dataset from the US Census Bureau"
"500 12TH ST NW, Charlottesville, VA",38.038558,-78.494435,1,rooftop,500,"12th St NW",,,Charlottesville,VA,"Albemarle County",22903,US,"City of Charlottesville"
"400 GARRETT ST, Charlottesville, VA",38.027754,-78.481638,1,rooftop,400,"Garrett St",,,Charlottesville,VA,"Albemarle County",22902,US,"Virginia Geographic Information Network (VGIN)"
"NA CHERRY AVE, Charlottesville, VA",38.026588,-78.48045,1,place,,,,,Charlottesville,VA,"Charlottesville city",22902,US,"TIGER/Line® dataset from the US Census Bureau"
"1400 MELBOURNE RD, Charlottesville, VA",38.052489,-78.475702,1,rooftop,1400,"Melbourne Rd",,,Charlottesville,VA,"Albemarle County",22902,US,"City of Charlottesville"
"300 E MAIN ST, Charlottesville, VA",38.029931,-78.48003,1,rooftop,300,"E Main St",,,Charlottesville,VA,"Albemarle County",22902,US,"Virginia Geographic Information Network (VGIN)"
"900 RAYMOND AVE, Charlottesville, VA",38.016886,-78.493051,0.6,range_interpolation,900,"Raymond Rd",,,Charlottesville,VA,"Albemarle County",22902,US,"TIGER/Line® dataset from the US Census Bureau"
"400 4TH ST NW, Charlottesville, VA",38.033577,-78.485453,1,range_interpolation,400,"4th St NW",,,Charlottesville,VA,"Albemarle County",22903,US,"TIGER/Line® dataset from the US Census Bureau"
"800 RIDGE ST, Charlottesville, VA",38.022211,-78.491258,1,rooftop,800,"Ridge St",,,Charlottesville,VA,"Albemarle County",22902,US,"City of Charlottesville"
"900 1ST ST S, Charlottesville, VA",38.022908,-78.485672,1,rooftop,900,"1st St S",,,Charlottesville,VA,"Albemarle County",22902,US,"Virginia Geographic Information Network (VGIN)"
"1100 HOLMES AVE, Charlottesville, VA",38.044708,-78.462477,1,range_interpolation,1100,"Holmes Ave",,,Charlottesville,VA,"Albemarle County",22901,US,"TIGER/Line® dataset from the US Census Bureau"
"900 CHARLTON AVE, Charlottesville, VA",38.038438,-78.487242,1,range_interpolation,900,"Charlton Ave",,,Charlottesville,VA,"Albemarle County",22903,US,"TIGER/Line® dataset from the US Census Bureau"
"1100 FOREST ST, Charlottesville, VA",38.039571,-78.484022,0.9,range_interpolation,1100,"Forrest St",,,Charlottesville,VA,"Albemarle County",22903,US,"TIGER/Line® dataset from the US Census Bureau"
"100 CHANCELLOR ST, Charlottesville, VA",38.035846,-78.50148,1,range_interpolation,100,"Chancellor St",,,Charlottesville,VA,"Albemarle County",22903,US,"TIGER/Line® dataset from the US Census Bureau"
"600 E MARKET ST, Charlottesville, VA",38.030267,-78.477549,1,range_interpolation,600,"Market St E",,,Charlottesville,VA,"Albemarle County",22902,US,"TIGER/Line® dataset from the US Census Bureau"
"2100 TARLETON DR, Charlottesville, VA",38.061521,-78.470829,1,rooftop,2100,"Tarleton Dr",,,Charlottesville,VA,"Albemarle County",22901,US,"City of Charlottesville"
"500 11TH ST NW, Charlottesville, VA",38.038017,-78.493928,1,range_interpolation,500,"11th St NW",,,Charlottesville,VA,"Albemarle County",22903,US,"TIGER/Line® dataset from the US Census Bureau"
"1500 ROSA TER, Charlottesville, VA",38.019814,-78.486029,1,range_interpolation,1500,"Rosa Ter",,,Charlottesville,VA,"Albemarle County",22902,US,"TIGER/Line® dataset from the US Census Bureau"
"500 PARK ST, Charlottesville, VA",38.03394,-78.475337,1,rooftop,500,"Park St",,,Charlottesville,VA,"Albemarle County",22902,US,"City of Charlottesville"
"1800 JEFFERSON PARK AVE, Charlottesville, VA",38.028293,-78.508006,1,rooftop,1800,"Jefferson Park Ave",,,Charlottesville,VA,"Albemarle County",22903,US,"City of Charlottesville"
"900 DRUID AVE, Charlottesville, VA",38.01801,-78.47932,1,rooftop,900,"Druid Ave",,,Charlottesville,VA,"Albemarle County",22902,US,"City of Charlottesville"
"400 GARRETT ST, Charlottesville, VA",38.027754,-78.481638,1,rooftop,400,"Garrett St",,,Charlottesville,VA,"Albemarle County",22902,US,"Virginia Geographic Information Network (VGIN)"
"100 FRANKLIN ST, Charlottesville, VA",38.02353,-78.461439,1,range_interpolation,100,"Franklin St",,,Charlottesville,VA,"Albemarle County",22902,US,"TIGER/Line® dataset from the US Census Bureau"
"200 HUNTLEY AVE, Charlottesville, VA",38.022028,-78.518714,1,range_interpolation,200,"Huntley Ave",,,Charlottesville,VA,"Albemarle County",22903,US,"TIGER/Line® dataset from the US Census Bureau"
"1100 EMMET ST N, Charlottesville, VA",38.051498,-78.5002,1,range_interpolation,1100,"Emmet St N",,,Charlottesville,VA,"Albemarle County",22903,US,"TIGER/Line® dataset from the US Census Bureau"
"200 W MARKET ST, Charlottesville, VA",38.031667,-78.482066,1,rooftop,200,"W Market St",,,Charlottesville,VA,"Albemarle County",22902,US,"City of Charlottesville"
"800 W MAIN ST, Charlottesville, VA",38.031848,-78.490814,1,range_interpolation,800,"W Main St",,,Charlottesville,VA,"Albemarle County",22903,US,"TIGER/Line® dataset from the US Census Bureau"
"300 8TH ST NW, Charlottesville, VA",38.034035,-78.489783,1,rooftop,300,"8th St NW",,,Charlottesville,VA,"Albemarle County",22901,US,"City of Charlottesville"
"800 HARDY DR, Charlottesville, VA",38.033559,-78.490241,1,range_interpolation,800,"Hardy Dr",,,Charlottesville,VA,"Albemarle County",22903,US,"TIGER/Line® dataset from the US Census Bureau"
"200 E MARKET ST, Charlottesville, VA",38.031121,-78.480304,1,rooftop,200,"E Market St",,,Charlottesville,VA,"Albemarle County",22902,US,"City of Charlottesville"
"800 HARDY DR, Charlottesville, VA",38.033559,-78.490241,1,range_interpolation,800,"Hardy Dr",,,Charlottesville,VA,"Albemarle County",22903,US,"TIGER/Line® dataset from the US Census Bureau"
"200 RIDGE MCINTIRE RD, Charlottesville, VA",38.031294,-78.484883,1,range_interpolation,200,"Ridge Mcintire Rd",,,Charlottesville,VA,"Albemarle County",22903,US,"TIGER/Line® dataset from the US Census Bureau"
"1600 CASTALIA ST, Charlottesville, VA",38.014744,-78.479566,1,range_interpolation,1600,"Castalia St",,,Charlottesville,VA,"Albemarle County",22902,US,"TIGER/Line® dataset from the US Census Bureau"
"100 BURNET ST, Charlottesville, VA",38.02393,-78.487254,1,rooftop,100,"Burnet St",,,Charlottesville,VA,"Albemarle County",22902,US,"City of Charlottesville"
"1300 RIVERDALE DR, Charlottesville, VA",38.035166,-78.461418,1,range_interpolation,1300,"Riverdale Dr",,,Charlottesville,VA,"Albemarle County",22902,US,"TIGER/Line® dataset from the US Census Bureau"
"1600 YORKTOWN DR, Charlottesville, VA",38.054719,-78.480884,1,range_interpolation,1600,"Yorktown Dr",,,Charlottesville,VA,"Albemarle County",22901,US,"TIGER/Line® dataset from the US Census Bureau"
"200 CARLTON RD, Charlottesville, VA",38.02338,-78.468643,1,rooftop,200,"Carlton Rd",,,Charlottesville,VA,"Albemarle County",22902,US,"City of Charlottesville"
"600 14TH ST NW, Charlottesville, VA",38.040191,-78.495811,1,rooftop,600,"14th St NW",,,Charlottesville,VA,"Albemarle County",22903,US,"City of Charlottesville"
"600 E MARKET ST, Charlottesville, VA",38.030267,-78.477549,1,range_interpolation,600,"Market St E",,,Charlottesville,VA,"Albemarle County",22902,US,"TIGER/Line® dataset from the US Census Bureau"
"100 STADIUM RD, Charlottesville, VA",38.032061,-78.509002,1,rooftop,100,"Stadium Rd",,,Charlottesville,VA,"Albemarle County",22901,US,"City of Charlottesville"
"100 14TH ST NW, Charlottesville, VA",38.034122,-78.499326,1,rooftop,100,"14th St NW",,,Charlottesville,VA,"Albemarle County",22903,US,"Virginia Geographic Information Network (VGIN)"
"800 HARDY DR, Charlottesville, VA",38.033559,-78.490241,1,range_interpolation,800,"Hardy Dr",,,Charlottesville,VA,"Albemarle County",22903,US,"TIGER/Line® dataset from the US Census Bureau"
"100 LANKFORD AVE, Charlottesville, VA",38.021191,-78.487098,1,rooftop,100,"Lankford Ave",,,Charlottesville,VA,"Albemarle County",22902,US,"City of Charlottesville"
"2100 MICHIE DR, Charlottesville, VA",38.065057,-78.48225,1,rooftop,2100,"Michie Dr",,,Charlottesville,VA,"Albemarle County",22901,US,"City of Charlottesville"
"100 250 BYPASS, Charlottesville, VA",38.026588,-78.48045,0.33,place,,,,,Charlottesville,VA,"Charlottesville city",22902,US,"TIGER/Line® dataset from the US Census Bureau"
"600 MASON ST, Charlottesville, VA",38.019716,-78.465579,1,rooftop,600,"Mason St",,,Charlottesville,VA,"Albemarle County",22902,US,"City of Charlottesville"
"1100 MILLMONT ST, Charlottesville, VA",38.052642,-78.502484,1,range_interpolation,1100,"Millmont St",,,Charlottesville,VA,"Albemarle County",22903,US,"TIGER/Line® dataset from the US Census Bureau"
"100 250 BYPASS, Charlottesville, VA",38.026588,-78.48045,0.33,place,,,,,Charlottesville,VA,"Charlottesville city",22902,US,"TIGER/Line® dataset from the US Census Bureau"
"500 PARK ST, Charlottesville, VA",38.03394,-78.475337,1,rooftop,500,"Park St",,,Charlottesville,VA,"Albemarle County",22902,US,"City of Charlottesville"
"700 6TH ST SE, Charlottesville, VA",38.025291,-78.480685,1,range_interpolation,700,"6th St SE",,,Charlottesville,VA,"Albemarle County",22902,US,"TIGER/Line® dataset from the US Census Bureau"
"1100 MILLMONT ST, Charlottesville, VA",38.052642,-78.502484,1,range_interpolation,1100,"Millmont St",,,Charlottesville,VA,"Albemarle County",22903,US,"TIGER/Line® dataset from the US Census Bureau"
"700 ST CLAIR AVE, Charlottesville, VA",38.033754,-78.467259,0.8,nearest_rooftop_match,708,"St Clair Ave",,,Charlottesville,VA,"Albemarle County",22902,US,"Virginia Geographic Information Network (VGIN)"
"1500 GRADY AVE, Charlottesville, VA",38.040356,-78.497622,1,rooftop,1500,"Grady Ave",,,Charlottesville,VA,"Albemarle County",22903,US,"City of Charlottesville"
"100 CHANCELLOR ST, Charlottesville, VA",38.035846,-78.50148,1,range_interpolation,100,"Chancellor St",,,Charlottesville,VA,"Albemarle County",22903,US,"TIGER/Line® dataset from the US Census Bureau"
"1500 GRADY AVE, Charlottesville, VA",38.040356,-78.497622,1,rooftop,1500,"Grady Ave",,,Charlottesville,VA,"Albemarle County",22903,US,"City of Charlottesville"
"1900 SWANSON DR, Charlottesville, VA",38.06198,-78.494142,1,range_interpolation,1900,"Swanson Dr",,,Charlottesville,VA,"Albemarle County",22901,US,"TIGER/Line® dataset from the US Census Bureau"
"1600 BRANDYWINE DR, Charlottesville, VA",38.057712,-78.488289,1,range_interpolation,1600,"Brandywine Dr",,,Charlottesville,VA,"Albemarle County",22901,US,"TIGER/Line® dataset from the US Census Bureau"
"1500 GREEN ST, Charlottesville, VA",38.016703,-78.480816,1,rooftop,1500,"Green St",,,Charlottesville,VA,"Albemarle County",22902,US,"City of Charlottesville"
"1600 EMMET ST N, Charlottesville, VA",38.057817,-78.493732,1,rooftop,1600,"Emmet St N",,,Charlottesville,VA,"Albemarle County",22901,US,"City of Charlottesville"
"200 HARTMANS MILL RD, Charlottesville, VA",38.019704,-78.488399,1,rooftop,200,"Hartman's Mill Rd",,,Charlottesville,VA,"Albemarle County",22902,US,"City of Charlottesville"
"2300 ANGUS RD, Charlottesville, VA",38.061269,-78.497998,1,rooftop,2300,"Angus Rd",,,Charlottesville,VA,"Albemarle County",22901,US,"City of Charlottesville"
"100 MADISON LN, Charlottesville, VA",38.036242,-78.502401,1,range_interpolation,100,"Madison Ln",,,Charlottesville,VA,"Albemarle County",22903,US,"TIGER/Line® dataset from the US Census Bureau"
"100 BURNET ST, Charlottesville, VA",38.02393,-78.487254,1,rooftop,100,"Burnet St",,,Charlottesville,VA,"Albemarle County",22902,US,"City of Charlottesville"
"100 14TH ST NW, Charlottesville, VA",38.034122,-78.499326,1,rooftop,100,"14th St NW",,,Charlottesville,VA,"Albemarle County",22903,US,"Virginia Geographic Information Network (VGIN)"
"200 HARTMANS MILL RD, Charlottesville, VA",38.019704,-78.488399,1,rooftop,200,"Hartman's Mill Rd",,,Charlottesville,VA,"Albemarle County",22902,US,"City of Charlottesville"
"NA BARRACKS RD, Charlottesville, VA",38.026588,-78.48045,1,place,,,,,Charlottesville,VA,"Charlottesville city",22902,US,"TIGER/Line® dataset from the US Census Bureau"
"1800 UNIVERSITY AVE, Charlottesville, VA",38.035642,-78.503403,0.77,nearest_rooftop_match,1826,"University Ave",,,Charlottesville,VA,"Albemarle County",22903,US,"Virginia Geographic Information Network (VGIN)"
"400 4TH ST NE, Charlottesville, VA",38.032137,-78.478169,1,range_interpolation,400,"4th St NE",,,Charlottesville,VA,"Albemarle County",22902,US,"TIGER/Line® dataset from the US Census Bureau"
"700 PROSPECT AVE, Charlottesville, VA",38.024646,-78.494399,1,rooftop,700,"Prospect Ave",,,Charlottesville,VA,"Albemarle County",22903,US,"Virginia Geographic Information Network (VGIN)"
"2200 BRANDYWINE DR, Charlottesville, VA",38.064214,-78.475111,1,rooftop,2200,"Brandywine Dr",,,Charlottesville,VA,"Albemarle County",22901,US,"City of Charlottesville"
"1100 5TH ST SW, Charlottesville, VA",38.014495,-78.50005,1,range_interpolation,1100,"5th St SW",,,Charlottesville,VA,"Albemarle County",22902,US,"TIGER/Line® dataset from the US Census Bureau"
"200 E MAIN ST, Charlottesville, VA",38.030391,-78.480746,1,range_interpolation,200,"E Main St",,,Charlottesville,VA,"Albemarle County",22902,US,"TIGER/Line® dataset from the US Census Bureau"
"800 HARRIS ST, Charlottesville, VA",38.036864,-78.483542,1,range_interpolation,800,"Harris St",,,Charlottesville,VA,"Albemarle County",22903,US,"TIGER/Line® dataset from the US Census Bureau"
"1500 E HIGH ST, Charlottesville, VA",38.03264,-78.462739,1,range_interpolation,1500,"High St E",,,Charlottesville,VA,"Albemarle County",22902,US,"TIGER/Line® dataset from the US Census Bureau"
"100 HOLY CT, Charlottesville, VA",38.057817,-78.474437,1,rooftop,100,"Holly Ct",,,Charlottesville,VA,"Albemarle County",22901,US,"City of Charlottesville"
"800 AVON ST, Charlottesville, VA",38.023355,-78.479555,1,rooftop,800,"Avon St",,,Charlottesville,VA,"Albemarle County",22902,US,"City of Charlottesville"
"700 5TH ST SW, Charlottesville, VA",38.02517,-78.490183,1,range_interpolation,700,"State Rte 631",,,Charlottesville,VA,"Albemarle County",22902,US,"TIGER/Line® dataset from the US Census Bureau"
"300 CARLTON RD, Charlottesville, VA",38.022432,-78.469845,1,rooftop,300,"Carlton Rd",,,Charlottesville,VA,"Albemarle County",22902,US,"City of Charlottesville"
"300 CARLTON RD, Charlottesville, VA",38.022432,-78.469845,1,rooftop,300,"Carlton Rd",,,Charlottesville,VA,"Albemarle County",22902,US,"City of Charlottesville"
"500 PARK ST, Charlottesville, VA",38.03394,-78.475337,1,rooftop,500,"Park St",,,Charlottesville,VA,"Albemarle County",22902,US,"City of Charlottesville"
"400 10TH ST NW, Charlottesville, VA",38.037458,-78.49149,1,rooftop,400,"10th St NW",,,Charlottesville,VA,"Albemarle County",22903,US,"City of Charlottesville"
"500 6TH ST SE, Charlottesville, VA",38.026763,-78.47957,1,range_interpolation,500,"6th St SE",,,Charlottesville,VA,"Albemarle County",22902,US,"TIGER/Line® dataset from the US Census Bureau"
"100 STEWART CIR, Charlottesville, VA",38.043463,-78.49427,1,rooftop,100,"Stewart Cir",,,Charlottesville,VA,"Albemarle County",22903,US,"City of Charlottesville"
"400 E WATER ST, Charlottesville, VA",38.02918,-78.479568,1,rooftop,400,"E Water St",,,Charlottesville,VA,"Albemarle County",22902,US,"City of Charlottesville"
"NA PRESTON AVE, Charlottesville, VA",38.026588,-78.48045,1,place,,,,,Charlottesville,VA,"Charlottesville city",22902,US,"TIGER/Line® dataset from the US Census Bureau"
"100 OLINDA DR, Charlottesville, VA",38.023796,-78.49979,1,rooftop,100,"Olinda Dr",,,Charlottesville,VA,"Albemarle County",22901,US,"City of Charlottesville"
"300 VALLEY RD EXT, Charlottesville, VA",37.798844,-78.49535,0.3,rooftop,300,"Valley St",,,Scottsville,VA,"Albemarle County",24590,US,"Virginia Geographic Information Network (VGIN)"
"400 GARRETT ST, Charlottesville, VA",38.027754,-78.481638,1,rooftop,400,"Garrett St",,,Charlottesville,VA,"Albemarle County",22902,US,"Virginia Geographic Information Network (VGIN)"
"1800 HYDRAULIC RD, Charlottesville, VA",38.060222,-78.490328,1,range_interpolation,1800,"Hydraulic Rd",,,Charlottesville,VA,"Albemarle County",22901,US,"TIGER/Line® dataset from the US Census Bureau"
"2300 NORTH BERKSHIRE RD, Charlottesville, VA",38.062362,-78.496624,1,range_interpolation,2300,"N Berkshire Rd",,,Charlottesville,VA,"Albemarle County",22901,US,"TIGER/Line® dataset from the US Census Bureau"
"400 GARRETT ST, Charlottesville, VA",38.027754,-78.481638,1,rooftop,400,"Garrett St",,,Charlottesville,VA,"Albemarle County",22902,US,"Virginia Geographic Information Network (VGIN)"
"600 E MARKET ST, Charlottesville, VA",38.030267,-78.477549,1,range_interpolation,600,"Market St E",,,Charlottesville,VA,"Albemarle County",22902,US,"TIGER/Line® dataset from the US Census Bureau"
"800 ST CLAIR AVE, Charlottesville, VA",38.035108,-78.465853,0.82,nearest_rooftop_match,802,"St Clair Ave",,,Charlottesville,VA,"Albemarle County",22902,US,"Virginia Geographic Information Network (VGIN)"
"2100 BARRACKS RD, Charlottesville, VA",38.052715,-78.499043,1,range_interpolation,2100,"Barracks Rd",,,Charlottesville,VA,"Albemarle County",22903,US,"TIGER/Line® dataset from the US Census Bureau"
"900 SYCAMORE ST, Charlottesville, VA",38.033869,-78.472101,1,range_interpolation,900,"Sycamore St",,,Charlottesville,VA,"Albemarle County",22902,US,"TIGER/Line® dataset from the US Census Bureau"
"1700 CONCORD AVE, Charlottesville, VA",38.056155,-78.476743,0.5,range_interpolation,1700,"Concord Dr",,,Charlottesville,VA,"Albemarle County",22901,US,"TIGER/Line® dataset from the US Census Bureau"
"1800 JEFFERSON PARK AVE, Charlottesville, VA",38.028293,-78.508006,1,rooftop,1800,"Jefferson Park Ave",,,Charlottesville,VA,"Albemarle County",22903,US,"City of Charlottesville"
"1200 E MARKET ST, Charlottesville, VA",38.026633,-78.46845,1,rooftop,1200,"E Market St",,,Charlottesville,VA,"Albemarle County",22901,US,"City of Charlottesville"
"1100 LEONARD ST, Charlottesville, VA",38.023297,-78.47208,1,rooftop,1100,"Leonard St",,,Charlottesville,VA,"Albemarle County",22903,US,"City of Charlottesville"
"500 HARRIS RD, Charlottesville, VA",38.014946,-78.503703,1,range_interpolation,500,"Harris Rd",,,Charlottesville,VA,"Albemarle County",22903,US,"TIGER/Line® dataset from the US Census Bureau"
"2200 JEFFERSON PARK AVE, Charlottesville, VA",38.025169,-78.514956,1,range_interpolation,2200,"Jefferson Park Ave",,,Charlottesville,VA,"Albemarle County",22903,US,"TIGER/Line® dataset from the US Census Bureau"
"200 ZAN RD, Charlottesville, VA",38.064994,-78.486363,1,range_interpolation,200,"Zan Rd",,,Charlottesville,VA,"Albemarle County",22901,US,"TIGER/Line® dataset from the US Census Bureau"
"700 PROSPECT AVE, Charlottesville, VA",38.024646,-78.494399,1,rooftop,700,"Prospect Ave",,,Charlottesville,VA,"Albemarle County",22903,US,"Virginia Geographic Information Network (VGIN)"
"NA MCINITIRE / NELSON DR, Charlottesville, VA",38.026588,-78.48045,1,place,,,,,Charlottesville,VA,"Charlottesville city",22902,US,"TIGER/Line® dataset from the US Census Bureau"
"500 COURT SQ, Charlottesville, VA",38.031191,-78.477669,1,rooftop,500,"Court Sq",,,Charlottesville,VA,"Albemarle County",22901,US,"City of Charlottesville"
"700 WEST ST, Charlottesville, VA",38.034665,-78.48799,1,rooftop,700,"West St",,,Charlottesville,VA,"Albemarle County",22902,US,"City of Charlottesville"
"600 BOLLING AVE, Charlottesville, VA",38.024116,-78.481209,1,rooftop,600,"Bolling Ave",,,Charlottesville,VA,"Albemarle County",22902,US,"City of Charlottesville"
"800 HINTON AVE, Charlottesville, VA",38.024915,-78.476461,1,rooftop,800,"Hinton Ave",,,Charlottesville,VA,"Albemarle County",22902,US,"City of Charlottesville"
"2500 JEFFERSON PARK AVE, Charlottesville, VA",38.020243,-78.514161,1,rooftop,2500,"Jefferson Park Ave",,,Charlottesville,VA,"Albemarle County",22903,US,"City of Charlottesville"
"1400 AVON ST, Charlottesville, VA",38.018774,-78.483294,0.9,range_interpolation,1400,"Avon St",,,Charlottesville,VA,"Albemarle County",22902,US,"TIGER/Line® dataset from the US Census Bureau"
"400 MONTICELLO RD, Charlottesville, VA",38.025401,-78.476047,1,range_interpolation,400,"Monticello Rd",,,Charlottesville,VA,"Albemarle County",22902,US,"TIGER/Line® dataset from the US Census Bureau"
"1000 CARLTON AVE, Charlottesville, VA",38.024172,-78.474491,1,range_interpolation,1000,"Carlton Ave",,,Charlottesville,VA,"Albemarle County",22902,US,"TIGER/Line® dataset from the US Census Bureau"
"200 RIDGE MCINTIRE RD, Charlottesville, VA",38.031294,-78.484883,1,range_interpolation,200,"Ridge Mcintire Rd",,,Charlottesville,VA,"Albemarle County",22903,US,"TIGER/Line® dataset from the US Census Bureau"
"200 STRIBLING AVE, Charlottesville, VA",38.022335,-78.518987,1,rooftop,200,"Stribling Ave",,,Charlottesville,VA,"Albemarle County",22903,US,"City of Charlottesville"
"700 NASSAU ST, Charlottesville, VA",38.01939,-78.466963,1,range_interpolation,700,"Nassau St",,,Charlottesville,VA,"Albemarle County",22902,US,"TIGER/Line® dataset from the US Census Bureau"
"600 E MARKET ST, Charlottesville, VA",38.030267,-78.477549,1,range_interpolation,600,"Market St E",,,Charlottesville,VA,"Albemarle County",22902,US,"TIGER/Line® dataset from the US Census Bureau"
"500 HARRIS ST, Charlottesville, VA",38.014946,-78.503703,0.6,range_interpolation,500,"Harris Rd",,,Charlottesville,VA,"Albemarle County",22903,US,"TIGER/Line® dataset from the US Census Bureau"
"400 GARRETT ST, Charlottesville, VA",38.027754,-78.481638,1,rooftop,400,"Garrett St",,,Charlottesville,VA,"Albemarle County",22902,US,"Virginia Geographic Information Network (VGIN)"
"700 KING ST, Charlottesville, VA",38.028805,-78.492153,1,range_interpolation,700,"King St",,,Charlottesville,VA,"Albemarle County",22903,US,"TIGER/Line® dataset from the US Census Bureau"
"900 NASSAU ST, Charlottesville, VA",38.01721,-78.468552,1,range_interpolation,900,"Nassau St",,,Charlottesville,VA,"Albemarle County",22902,US,"TIGER/Line® dataset from the US Census Bureau"
"100 ALDERMAN RD, Charlottesville, VA",38.041764,-78.511893,1,rooftop,100,"Alderman Rd",,,Charlottesville,VA,"Albemarle County",22903,US,"City of Charlottesville"
"2100 MICHIE DR, Charlottesville, VA",38.065057,-78.48225,1,rooftop,2100,"Michie Dr",,,Charlottesville,VA,"Albemarle County",22901,US,"City of Charlottesville"
"900 EMMET ST N, Charlottesville, VA",38.048623,-78.503011,1,rooftop,900,"Emmet St N",,,Charlottesville,VA,"Albemarle County",22903,US,"City of Charlottesville"
"200 5TH ST SW, Charlottesville, VA",38.030475,-78.488002,1,range_interpolation,200,"5th St SW",,,Charlottesville,VA,"Albemarle County",22903,US,"TIGER/Line® dataset from the US Census Bureau"
"900 RIVER RD, Charlottesville, VA",38.035852,-78.457354,1,rooftop,900,"River Rd",,,Charlottesville,VA,"Albemarle County",22901,US,"City of Charlottesville"
"1100 5TH ST SW, Charlottesville, VA",38.014495,-78.50005,1,range_interpolation,1100,"5th St SW",,,Charlottesville,VA,"Albemarle County",22902,US,"TIGER/Line® dataset from the US Census Bureau"
"600 RIDGE ST, Charlottesville, VA",38.025605,-78.48916,1,range_interpolation,600,"Ridge St",,,Charlottesville,VA,"Albemarle County",22902,US,"TIGER/Line® dataset from the US Census Bureau"
"1100 5TH ST SW, Charlottesville, VA",38.014495,-78.50005,1,range_interpolation,1100,"5th St SW",,,Charlottesville,VA,"Albemarle County",22902,US,"TIGER/Line® dataset from the US Census Bureau"
"800 W MAIN ST, Charlottesville, VA",38.031848,-78.490814,1,range_interpolation,800,"W Main St",,,Charlottesville,VA,"Albemarle County",22903,US,"TIGER/Line® dataset from the US Census Bureau"
"1800 EMMET ST, Charlottesville, VA",38.059769,-78.493071,0.9,range_interpolation,1800,"Emmet St N",,,Charlottesville,VA,"Albemarle County",22903,US,"TIGER/Line® dataset from the US Census Bureau"
"900 SYCAMORE ST, Charlottesville, VA",38.033869,-78.472101,1,range_interpolation,900,"Sycamore St",,,Charlottesville,VA,"Albemarle County",22902,US,"TIGER/Line® dataset from the US Census Bureau"
"1500 WESTWOOD RD, Charlottesville, VA",38.044093,-78.484199,1,rooftop,1500,"Westwood Rd",,,Charlottesville,VA,"Albemarle County",22903,US,"City of Charlottesville"
"1100 WERTLAND ST, Charlottesville, VA",38.034035,-78.495713,1,rooftop,1100,"Wertland St",,,Charlottesville,VA,"Albemarle County",22903,US,"City of Charlottesville"
"4000 CITY WALK WAY, Charlottesville, VA",38.026588,-78.48045,0.33,place,,,,,Charlottesville,VA,"Charlottesville city",22902,US,"TIGER/Line® dataset from the US Census Bureau"
"600 NORTH AVE, Charlottesville, VA",38.043854,-78.470276,1,range_interpolation,600,"North Ave",,,Charlottesville,VA,"Albemarle County",22901,US,"TIGER/Line® dataset from the US Census Bureau"
"200 W WATER ST, Charlottesville, VA",38.030184,-78.482828,1,rooftop,200,"W Water St",,,Charlottesville,VA,"Albemarle County",22902,US,"City of Charlottesville"
"1100 EMMET ST N, Charlottesville, VA",38.051498,-78.5002,1,range_interpolation,1100,"Emmet St N",,,Charlottesville,VA,"Albemarle County",22903,US,"TIGER/Line® dataset from the US Census Bureau"
"1100 EMMET ST, Charlottesville, VA",38.051498,-78.5002,0.9,range_interpolation,1100,"Emmet St N",,,Charlottesville,VA,"Albemarle County",22903,US,"TIGER/Line® dataset from the US Census Bureau"
"800 HARDY DR, Charlottesville, VA",38.033559,-78.490241,1,range_interpolation,800,"Hardy Dr",,,Charlottesville,VA,"Albemarle County",22903,US,"TIGER/Line® dataset from the US Census Bureau"
"1600 CABELL AVE, Charlottesville, VA",38.043474,-78.491562,0.79,nearest_rooftop_match,1614,"Cabell Ave",,,Charlottesville,VA,"Albemarle County",22903,US,"Virginia Geographic Information Network (VGIN)"
"1200 W MAIN ST, Charlottesville, VA",38.032645,-78.496684,1,rooftop,1200,"W Main St",,,Charlottesville,VA,"Albemarle County",22903,US,"Virginia Geographic Information Network (VGIN)"
"600 E MARKET ST, Charlottesville, VA",38.030267,-78.477549,1,range_interpolation,600,"Market St E",,,Charlottesville,VA,"Albemarle County",22902,US,"TIGER/Line® dataset from the US Census Bureau"
"500 CLEVELAND AVE, Charlottesville, VA",38.017072,-78.498455,1,rooftop,500,"Cleveland Ave",,,Charlottesville,VA,"Albemarle County",22903,US,"Virginia Geographic Information Network (VGIN)"
"1100 AVON ST, Charlottesville, VA",38.021016,-78.481214,1,rooftop,1100,"Avon St",,,Charlottesville,VA,"Albemarle County",22902,US,"City of Charlottesville"
"100 PARK RD, Charlottesville, VA",38.019758,-78.514589,1,range_interpolation,100,"Park Rd",,,Charlottesville,VA,"Albemarle County",22903,US,"TIGER/Line® dataset from the US Census Bureau"
"1400 EMMET ST N, Charlottesville, VA",38.055785,-78.496363,1,range_interpolation,1400,"Emmet St N",,,Charlottesville,VA,"Albemarle County",22903,US,"TIGER/Line® dataset from the US Census Bureau"
"600 E MAIN ST, Charlottesville, VA",38.030966,-78.488496,0.8,rooftop,600,"W Main St",,,Charlottesville,VA,"Albemarle County",22903,US,"Virginia Geographic Information Network (VGIN)"
"1700 GORDON AVE, Charlottesville, VA",38.04053,-78.499922,1,range_interpolation,1700,"Gordon Ave",,,Charlottesville,VA,"Albemarle County",22903,US,"TIGER/Line® dataset from the US Census Bureau"
"1700 JEFFERSON PARK AVE, Charlottesville, VA",38.030234,-78.508221,1,rooftop,1700,"Jefferson Park Ave",,,Charlottesville,VA,"Albemarle County",22903,US,"City of Charlottesville"
"1300 GROVE ST, Charlottesville, VA",38.028506,-78.502389,1,range_interpolation,1300,"Grove St",,,Charlottesville,VA,"Albemarle County",22903,US,"TIGER/Line® dataset from the US Census Bureau"
"500 PARK ST, Charlottesville, VA",38.03394,-78.475337,1,rooftop,500,"Park St",,,Charlottesville,VA,"Albemarle County",22902,US,"City of Charlottesville"
"500 PARK ST, Charlottesville, VA",38.03394,-78.475337,1,rooftop,500,"Park St",,,Charlottesville,VA,"Albemarle County",22902,US,"City of Charlottesville"
"1400 HAMPTON ST, Charlottesville, VA",38.019047,-78.469152,1,range_interpolation,1400,"Hampton St",,,Charlottesville,VA,"Albemarle County",22902,US,"TIGER/Line® dataset from the US Census Bureau"
"200 FAIRWAY AVE, Charlottesville, VA",38.024714,-78.463696,1,range_interpolation,200,"Fairway Ave",,,Charlottesville,VA,"Albemarle County",22902,US,"TIGER/Line® dataset from the US Census Bureau"
"500 HARRIS RD, Charlottesville, VA",38.014946,-78.503703,1,range_interpolation,500,"Harris Rd",,,Charlottesville,VA,"Albemarle County",22903,US,"TIGER/Line® dataset from the US Census Bureau"
"400 RIDGE MCINTIRE RD, Charlottesville, VA",38.03264,-78.484434,1,range_interpolation,400,"Ridge Mcintire Rd",,,Charlottesville,VA,"Albemarle County",22903,US,"TIGER/Line® dataset from the US Census Bureau"
"100 W MARKET ST, Charlottesville, VA",38.031682,-78.481145,0.8,range_interpolation,100,"Market St",,,Charlottesville,VA,"Albemarle County",22902,US,"TIGER/Line® dataset from the US Census Bureau"
"1000 E WATER ST, Charlottesville, VA",38.026588,-78.48045,0.33,place,,,,,Charlottesville,VA,"Charlottesville city",22902,US,"TIGER/Line® dataset from the US Census Bureau"
"1400 E HIGH ST, Charlottesville, VA",38.03229,-78.463473,1,range_interpolation,1400,"High St E",,,Charlottesville,VA,"Albemarle County",22902,US,"TIGER/Line® dataset from the US Census Bureau"
"1600 MULBERRY AVE, Charlottesville, VA",38.023971,-78.506828,1,rooftop,1600,"Mulberry Ave",,,Charlottesville,VA,"Albemarle County",22903,US,"City of Charlottesville"
"2100 MICHIE DR, Charlottesville, VA",38.065057,-78.48225,1,rooftop,2100,"Michie Dr",,,Charlottesville,VA,"Albemarle County",22901,US,"City of Charlottesville"
"300 10TH ST NE, Charlottesville, VA",38.029733,-78.472753,1,range_interpolation,300,"10th St NE",,,Charlottesville,VA,"Albemarle County",22902,US,"TIGER/Line® dataset from the US Census Bureau"
"200 E MAIN ST, Charlottesville, VA",38.030391,-78.480746,1,range_interpolation,200,"E Main St",,,Charlottesville,VA,"Albemarle County",22902,US,"TIGER/Line® dataset from the US Census Bureau"
"700 MOBILE LN, Charlottesville, VA",38.026588,-78.48045,0.33,place,,,,,Charlottesville,VA,"Charlottesville city",22902,US,"TIGER/Line® dataset from the US Census Bureau"
"200 E MAIN ST, Charlottesville, VA",38.030391,-78.480746,1,range_interpolation,200,"E Main St",,,Charlottesville,VA,"Albemarle County",22902,US,"TIGER/Line® dataset from the US Census Bureau"
"100 BRANDYWINE CT, Charlottesville, VA",38.057707,-78.487433,1,rooftop,100,"Brandywine Ct",,,Charlottesville,VA,"Albemarle County",22901,US,"City of Charlottesville"
"700 ORANGEDALE AVE, Charlottesville, VA",38.024675,-78.495376,1,rooftop,700,"Orangedale Ave",,,Charlottesville,VA,"Albemarle County",22903,US,"City of Charlottesville"
"300 7 1/2 ST SW, Charlottesville, VA",38.029801,-78.491318,1,range_interpolation,300,"7 1/2 St SW",,,Charlottesville,VA,"Albemarle County",22903,US,"TIGER/Line® dataset from the US Census Bureau"
"700 PROSPECT AVE, Charlottesville, VA",38.024646,-78.494399,1,rooftop,700,"Prospect Ave",,,Charlottesville,VA,"Albemarle County",22903,US,"Virginia Geographic Information Network (VGIN)"
"1000 PAGE ST, Charlottesville, VA",38.035177,-78.493817,1,rooftop,1000,"Page St",,,Charlottesville,VA,"Albemarle County",22903,US,"City of Charlottesville"
"1500 CARLTON AVE, Charlottesville, VA",38.020895,-78.464037,1,rooftop,1500,"Carlton Ave",,,Charlottesville,VA,"Albemarle County",22902,US,"City of Charlottesville"
"300 W MAIN ST, Charlottesville, VA",38.030167,-78.485534,1,rooftop,300,"W Main St",,,Charlottesville,VA,"Albemarle County",22902,US,"City of Charlottesville"
"100 CLEVELAND AVE, Charlottesville, VA",38.020465,-78.514671,1,range_interpolation,100,"Cleveland Ave",,,Charlottesville,VA,"Albemarle County",22903,US,"TIGER/Line® dataset from the US Census Bureau"
"300 E MAIN ST, Charlottesville, VA",38.029931,-78.48003,1,rooftop,300,"E Main St",,,Charlottesville,VA,"Albemarle County",22902,US,"Virginia Geographic Information Network (VGIN)"
"2500 JEFFERSON PARK AVE, Charlottesville, VA",38.020243,-78.514161,1,rooftop,2500,"Jefferson Park Ave",,,Charlottesville,VA,"Albemarle County",22903,US,"City of Charlottesville"
"100 E MARKET ST, Charlottesville, VA",38.031382,-78.481145,1,range_interpolation,100,"Market St E",,,Charlottesville,VA,"Albemarle County",22902,US,"TIGER/Line® dataset from the US Census Bureau"
"1600 JEFFERSON PARK AVE, Charlottesville, VA",38.03177,-78.507397,1,rooftop,1600,"Jefferson Park Ave",,,Charlottesville,VA,"Albemarle County",22903,US,"City of Charlottesville"
"100 E MARKET ST, Charlottesville, VA",38.031382,-78.481145,1,range_interpolation,100,"Market St E",,,Charlottesville,VA,"Albemarle County",22902,US,"TIGER/Line® dataset from the US Census Bureau"
"2000 HOLIDAY DR, Charlottesville, VA",38.057743,-78.491336,1,rooftop,2000,"Holiday Dr",,,Charlottesville,VA,"Albemarle County",22901,US,"City of Charlottesville"
"1100 EMMET ST N, Charlottesville, VA",38.051498,-78.5002,1,range_interpolation,1100,"Emmet St N",,,Charlottesville,VA,"Albemarle County",22903,US,"TIGER/Line® dataset from the US Census Bureau"
"600 NORTHWOOD AVE, Charlottesville, VA",38.036066,-78.477844,1,rooftop,600,"Northwood Ave",,,Charlottesville,VA,"Albemarle County",22902,US,"City of Charlottesville"
"900 RIVER RD, Charlottesville, VA",38.035852,-78.457354,1,rooftop,900,"River Rd",,,Charlottesville,VA,"Albemarle County",22901,US,"City of Charlottesville"
"200 FAIRWAY AVE, Charlottesville, VA",38.024714,-78.463696,1,range_interpolation,200,"Fairway Ave",,,Charlottesville,VA,"Albemarle County",22902,US,"TIGER/Line® dataset from the US Census Bureau"
"100 SEMINOLE CT, Charlottesville, VA",38.065629,-78.488112,1,range_interpolation,100,"Seminole Ct",,,Charlottesville,VA,"Albemarle County",22901,US,"TIGER/Line® dataset from the US Census Bureau"
"1600 MONTICELLO AVE, Charlottesville, VA",38.016021,-78.47595,1,rooftop,1600,"Monticello Ave",,,Charlottesville,VA,"Albemarle County",22902,US,"City of Charlottesville"
"100 W WATER ST, Charlottesville, VA",38.030191,-78.481861,1,range_interpolation,100,"Water St W",,,Charlottesville,VA,"Albemarle County",22902,US,"TIGER/Line® dataset from the US Census Bureau"
"600 WATSON AVE, Charlottesville, VA",38.040658,-78.471318,1,rooftop,600,"Watson Ave",,,Charlottesville,VA,"Albemarle County",22901,US,"City of Charlottesville"
"800 W MAIN ST, Charlottesville, VA",38.031848,-78.490814,1,range_interpolation,800,"W Main St",,,Charlottesville,VA,"Albemarle County",22903,US,"TIGER/Line® dataset from the US Census Bureau"
"2100 ARLINGTON BLVD, Charlottesville, VA",38.049485,-78.506608,1,range_interpolation,2100,"Arlington Blvd",,,Charlottesville,VA,"Albemarle County",22903,US,"TIGER/Line® dataset from the US Census Bureau"
"1100 5TH ST SW, Charlottesville, VA",38.014495,-78.50005,1,range_interpolation,1100,"5th St SW",,,Charlottesville,VA,"Albemarle County",22902,US,"TIGER/Line® dataset from the US Census Bureau"
"1900 SWANSON DR, Charlottesville, VA",38.06198,-78.494142,1,range_interpolation,1900,"Swanson Dr",,,Charlottesville,VA,"Albemarle County",22901,US,"TIGER/Line® dataset from the US Census Bureau"
"2400 JEFFERSON PARK AVE, Charlottesville, VA",38.023231,-78.514402,1,rooftop,2400,"Jefferson Park Ave",,,Charlottesville,VA,"Albemarle County",22903,US,"City of Charlottesville"
"600 RIDGE ST, Charlottesville, VA",38.025605,-78.48916,1,range_interpolation,600,"Ridge St",,,Charlottesville,VA,"Albemarle County",22902,US,"TIGER/Line® dataset from the US Census Bureau"
"200 E MAIN ST, Charlottesville, VA",38.030391,-78.480746,1,range_interpolation,200,"E Main St",,,Charlottesville,VA,"Albemarle County",22902,US,"TIGER/Line® dataset from the US Census Bureau"
"400 10TH ST NW, Charlottesville, VA",38.037458,-78.49149,1,rooftop,400,"10th St NW",,,Charlottesville,VA,"Albemarle County",22903,US,"City of Charlottesville"
"1400 HAMPTON ST, Charlottesville, VA",38.019047,-78.469152,1,range_interpolation,1400,"Hampton St",,,Charlottesville,VA,"Albemarle County",22902,US,"TIGER/Line® dataset from the US Census Bureau"
"200 ZAN RD, Charlottesville, VA",38.064994,-78.486363,1,range_interpolation,200,"Zan Rd",,,Charlottesville,VA,"Albemarle County",22901,US,"TIGER/Line® dataset from the US Census Bureau"
"2300 NORTH BERKSHIRE RD, Charlottesville, VA",38.062362,-78.496624,1,range_interpolation,2300,"N Berkshire Rd",,,Charlottesville,VA,"Albemarle County",22901,US,"TIGER/Line® dataset from the US Census Bureau"
"1400 UNIVERSITY AVE, Charlottesville, VA",38.033951,-78.49996,1,rooftop,1400,"University Ave",,,Charlottesville,VA,"Albemarle County",22903,US,Albemarle
"500 PRESTON AVE, Charlottesville, VA",38.034637,-78.485106,1,range_interpolation,500,"Preston Ave",,,Charlottesville,VA,"Albemarle County",22903,US,"TIGER/Line® dataset from the US Census Bureau"
"200 LANKFORD AVE, Charlottesville, VA",38.022019,-78.488787,1,rooftop,200,"Lankford Ave",,,Charlottesville,VA,"Albemarle County",22902,US,"City of Charlottesville"
"1200 RIVER VISTA AVE, Charlottesville, VA",38.038224,-78.462871,1,range_interpolation,1200,"River Vista Ave",,,Charlottesville,VA,"Albemarle County",22901,US,"TIGER/Line® dataset from the US Census Bureau"
"1100 EMMET ST N, Charlottesville, VA",38.051498,-78.5002,1,range_interpolation,1100,"Emmet St N",,,Charlottesville,VA,"Albemarle County",22903,US,"TIGER/Line® dataset from the US Census Bureau"
"800 E MARKET ST, Charlottesville, VA",38.02958,-78.476031,1,rooftop,800,"E Market St",,,Charlottesville,VA,"Albemarle County",22902,US,"Virginia Geographic Information Network (VGIN)"
"500 RIDGE ST, Charlottesville, VA",38.027111,-78.486605,1,rooftop,500,"Ridge St",,,Charlottesville,VA,"Albemarle County",22901,US,"City of Charlottesville"
"200 LANKFORD AVE, Charlottesville, VA",38.022019,-78.488787,1,rooftop,200,"Lankford Ave",,,Charlottesville,VA,"Albemarle County",22902,US,"City of Charlottesville"
"400 PRESTON AVE, Charlottesville, VA",38.033422,-78.484351,1,rooftop,400,"Preston Ave",,,Charlottesville,VA,"Albemarle County",22903,US,"City of Charlottesville"
"600 E MARKET ST, Charlottesville, VA",38.030267,-78.477549,1,range_interpolation,600,"Market St E",,,Charlottesville,VA,"Albemarle County",22902,US,"TIGER/Line® dataset from the US Census Bureau"
"100 MONTICELLO AVE / 200 GLEASON ST, Charlottesville, VA",38.027986,-78.484488,1,range_interpolation,100,"Monticello Ave",,,Charlottesville,VA,"Albemarle County",22902,US,"TIGER/Line® dataset from the US Census Bureau"
"100 MONTICELLO AVE, Charlottesville, VA",38.027986,-78.484488,1,range_interpolation,100,"Monticello Ave",,,Charlottesville,VA,"Albemarle County",22902,US,"TIGER/Line® dataset from the US Census Bureau"
"200 LANKFORD AVE, Charlottesville, VA",38.022019,-78.488787,1,rooftop,200,"Lankford Ave",,,Charlottesville,VA,"Albemarle County",22902,US,"City of Charlottesville"
"1000 1ST ST S, Charlottesville, VA",38.020477,-78.486886,1,rooftop,1000,"1st St S",,,Charlottesville,VA,"Albemarle County",22902,US,"Virginia Geographic Information Network (VGIN)"
"800 ELM ST, Charlottesville, VA",38.027455,-78.493543,1,rooftop,800,"Elm St",,,Charlottesville,VA,"Albemarle County",22903,US,"Virginia Geographic Information Network (VGIN)"
"1600 RIALTO ST, Charlottesville, VA",38.016965,-78.482611,1,rooftop,1600,"Rialto St",,,Charlottesville,VA,"Albemarle County",22902,US,"City of Charlottesville"
"100 13TH ST NW, Charlottesville, VA",38.033219,-78.498297,1,range_interpolation,100,"13th St NW",,,Charlottesville,VA,"Albemarle County",22903,US,"TIGER/Line® dataset from the US Census Bureau"
"1100 5TH ST SW, Charlottesville, VA",38.014495,-78.50005,1,range_interpolation,1100,"5th St SW",,,Charlottesville,VA,"Albemarle County",22902,US,"TIGER/Line® dataset from the US Census Bureau"
"1000 CHERRY AVE, Charlottesville, VA",38.026722,-78.497519,1,rooftop,1000,"Cherry Ave",,,Charlottesville,VA,"Albemarle County",22903,US,"City of Charlottesville"
"700 BOLLING AVE, Charlottesville, VA",38.023421,-78.479709,1,range_interpolation,700,"Bolling Ave",,,Charlottesville,VA,"Albemarle County",22902,US,"TIGER/Line® dataset from the US Census Bureau"
"100 UNIVERSITY AVE, Charlottesville, VA",38.04355,-78.503401,0.6,range_interpolation,100,"University Cir",,,Charlottesville,VA,"Albemarle County",22903,US,"TIGER/Line® dataset from the US Census Bureau"
"100 RUGBY RD, Charlottesville, VA",38.040259,-78.501247,1,range_interpolation,100,"Rugby Rd",,,Charlottesville,VA,"Albemarle County",22903,US,"TIGER/Line® dataset from the US Census Bureau"
"200 E MARKET ST, Charlottesville, VA",38.031121,-78.480304,1,rooftop,200,"E Market St",,,Charlottesville,VA,"Albemarle County",22902,US,"City of Charlottesville"
"1500 CARLTON AVE, Charlottesville, VA",38.020895,-78.464037,1,rooftop,1500,"Carlton Ave",,,Charlottesville,VA,"Albemarle County",22902,US,"City of Charlottesville"
"700 NASSAU ST, Charlottesville, VA",38.01939,-78.466963,1,range_interpolation,700,"Nassau St",,,Charlottesville,VA,"Albemarle County",22902,US,"TIGER/Line® dataset from the US Census Bureau"
"1600 GREEN ST, Charlottesville, VA",38.015926,-78.481467,1,rooftop,1600,"Green St",,,Charlottesville,VA,"Albemarle County",22902,US,"City of Charlottesville"
"800 PRESTON AVE, Charlottesville, VA",38.036342,-78.488528,1,rooftop,800,"Preston Ave",,,Charlottesville,VA,"Albemarle County",22903,US,"City of Charlottesville"
"100 W MAIN ST, Charlottesville, VA",38.030482,-78.481848,1,rooftop,100,"W Main St",,,Charlottesville,VA,"Albemarle County",22902,US,"Virginia Geographic Information Network (VGIN)"
"300 CARLTON RD, Charlottesville, VA",38.022432,-78.469845,1,rooftop,300,"Carlton Rd",,,Charlottesville,VA,"Albemarle County",22902,US,"City of Charlottesville"
"100 9TH ST NE, Charlottesville, VA",38.032749,-78.494765,0.8,range_interpolation,100,"9th St SW",,,Charlottesville,VA,"Albemarle County",22903,US,"TIGER/Line® dataset from the US Census Bureau"
"100 E MARKET ST, Charlottesville, VA",38.031382,-78.481145,1,range_interpolation,100,"Market St E",,,Charlottesville,VA,"Albemarle County",22902,US,"TIGER/Line® dataset from the US Census Bureau"
"600 DICE ST, Charlottesville, VA",38.029163,-78.489832,1,rooftop,600,"Dice St",,,Charlottesville,VA,"Albemarle County",22903,US,"City of Charlottesville"
"1200 CEDARS CT, Charlottesville, VA",38.055196,-78.5015,1,range_interpolation,1200,"Cedars Ct",,,Charlottesville,VA,"Albemarle County",22903,US,"TIGER/Line® dataset from the US Census Bureau"
"100 E WATER ST, Charlottesville, VA",38.029591,-78.481582,1,rooftop,100,"E Water St",,,Charlottesville,VA,"Albemarle County",22902,US,"City of Charlottesville"
"2200 NORTH BERKSHIRE RD, Charlottesville, VA",38.063304,-78.497708,1,range_interpolation,2200,"N Berkshire Rd",,,Charlottesville,VA,"Albemarle County",22901,US,"TIGER/Line® dataset from the US Census Bureau"
"1500 DAIRY RD, Charlottesville, VA",38.052849,-78.48642,1,range_interpolation,1500,"Dairy Rd",,,Charlottesville,VA,"Albemarle County",22903,US,"TIGER/Line® dataset from the US Census Bureau"
"600 E WATER ST, Charlottesville, VA",38.028772,-78.477348,1,rooftop,600,"E Water St",,,Charlottesville,VA,"Albemarle County",22903,US,"City of Charlottesville"
"600 MASON ST, Charlottesville, VA",38.019716,-78.465579,1,rooftop,600,"Mason St",,,Charlottesville,VA,"Albemarle County",22902,US,"City of Charlottesville"
"1000 ROSE HILL DR, Charlottesville, VA",38.040322,-78.484624,1,rooftop,1000,"Rose Hill Dr",,,Charlottesville,VA,"Albemarle County",22903,US,"City of Charlottesville"
"NA UNIVERSITY CIR, Charlottesville, VA",38.026588,-78.48045,1,place,,,,,Charlottesville,VA,"Charlottesville city",22902,US,"TIGER/Line® dataset from the US Census Bureau"
